Nom;Code;Longitude;Latitude;Population
Aast;64460;-0.0015853349341031;0.7555288144014;190
Abainville;55130;0.095886449258031;0.84701798522554;318
Abancourt;59265|59268;0.056068703884793;0.876766160392;433
Abancourt;60220;0.030809912994639;0.86739469625309;567
Abaucourt;54610;0.1092139809396;0.85340784078702;309
Abaucourt-Hautecourt;55400;0.096686387948085;0.85866804999312;111
Abbans-Dessous;25320;0.10251385046637;0.82263667886684;174
Abbans-Dessus;25440;0.10264475315632;0.82241856597355;274
Abbaretz;44170;-0.026732632091079;0.82994286158038;1511
Abbecourt;60430;0.037679722199419;0.8614169648703;670
Abbécourt;2300;0.05552571446685;0.86560092410087;447
Abbenans;25340;0.11259312456637;0.82902167415932;370
Abbeville;80132|80100;0.032051033447589;0.87452630875718;24567
Abbéville-la-Rivière;91150;0.037844551064949;0.84380854321685;262
Abbéville-lès-Conflans;54800;0.10203388225891;0.8586729102621;244
Abbeville-Saint-Lucien;60480;0.037897889188156;0.86424823800419;506
Abbévillers;25310;0.12076708167637;0.82783876458214;877
Abeilhan;34290;0.057513452131405;0.75834071303835;979
Abelcourt;70300;0.10977635733804;0.83399585986434;303
Abère;64160;-0.003039787724122;0.75731772628463;133
Abergement-la-Ronce;39500;0.093602988360369;0.82155070835333;735
Abergement-le-Grand;39600;0.099100768180458;0.81878241897921;41
Abergement-le-Petit;39800;0.099386800003911;0.81856423950691;43
Abergement-lès-Thésy;39110;0.10364346353224;0.81884546931803;53
Abidos;64150;-0.010854970742055;0.75747771568711;200
Abilly;37160;0.012716660784156;0.8192866219526;1109
Abitain;64390;-0.017230274624893;0.75783164979598;107
Abjat-sur-Bandiat;24300;0.013196626911021;0.79561804408062;624
Ablain-Saint-Nazaire;62153;0.047283884199761;0.87952472922812;1843
Ablaincourt-Pressoir;80320;0.049266769917704;0.86990119689204;227
Ablainzevelle;62116;0.04764263696573;0.87530688127269;172
Ablancourt;51240;0.078956759175532;0.85196793616464;172
Ableiges;95450;0.034596299725162;0.85675789770125;957
Ablis;78660;0.03201225324481;0.84677557098732;2705
Ablon;14600;0.0051632597394454;0.86207143670818;1047
Ablon-sur-Seine;94480;0.042183631106636;0.8504601875135;4867
Aboën;42380;0.07212088238811;0.79263157523422;234
Aboncourt;57920;0.11075084127042;0.8597637410446;346
Aboncourt;54115;0.10413313563292;0.84401214188218;123
Aboncourt-Gesincourt;70500;0.10440461993892;0.833797121468;204
Aboncourt-sur-Seille;57590;0.11060539106301;0.85202126596547;64
Abondance;74360;0.11729097401878;0.80774807705567;1294
Abondant;28570|28410;0.025176374376794;0.85151706299209;1742
Abos;64360;-0.0098126250958572;0.75675539982045;481
Abreschviller;57560;0.12383595871376;0.84889904248248;1285
Abrest;3200;0.060136295459294;0.80459675853777;2428
Abriès;5460;0.12090767993717;0.78181055251398;354
Abscon;59215;0.057595864483575;0.87850660274339;4135
Abzac;33230;-0.0021865135116039;0.78569876770549;1599
Abzac;16500;0.012270641638811;0.80463557411066;544
Accolans;25250;0.11399909885198;0.82895383013057;79
Accolay;89460;0.064756567861391;0.83182877910633;433
Accons;7160;0.076581169548911;0.78341044653884;419
Accous;64490;-0.010433194685008;0.75005042572299;434
Achain;57340;0.11506568654618;0.85369872455708;95
Achen;57410|57412;0.12539220186389;0.85598218545474;938
Achenheim;67204;0.13312013774794;0.84784702727288;2183
Achères;78260;0.036147705492837;0.85454714110135;18942
Achères;18250;0.042755715559488;0.82516741427171;354
Achères-la-Forêt;77760;0.044859812557732;0.84392971704646;1040
Achery;2800;0.059181198507418;0.86728803665142;540
Acheux-en-Amiénois;80560;0.044171368771191;0.87390572564418;514
Acheux-en-Vimeu;80210;0.029273046422041;0.8737699710076;503
Acheville;62320;0.050313966470214;0.87935501928766;457
Achey;70180;0.097908121420537;0.8303404049521;55
Achicourt;62217;0.048127452958611;0.87743521303685;7695
Achiet-le-Grand;62121;0.048592881970994;0.87493843293588;1016
Achiet-le-Petit;62121;0.048030484766607;0.87482691306523;328
Achun;58110;0.064208726496837;0.82248641000233;170
Achy;60690;0.034562371468994;0.86497548071886;288
Acigné;35690;-0.02682473377231;0.84007059688984;5246
Aclou;27800;0.012290032780498;0.85816870728873;222
Acon;27570;0.019251958230669;0.85113403384831;407
Acq;62144;0.046338491141107;0.87874901698161;502
Acqueville;50440;-0.030499627679915;0.865867573105;650
Acqueville;14220;-0.0064237890191368;0.85474108580774;178
Acquigny;27400;0.020531860966993;0.85820745628258;1438
Acquin-Westbécourt;62380;0.036457988726966;0.88536191228438;625
Acy;2200;0.059549655166609;0.86123274070189;951
Acy-en-Multien;60620;0.051584181958074;0.85700517220848;752
Acy-Romance;8300;0.075713361862952;0.86397672873106;443
Adaincourt;57580;0.11236527449036;0.8553082725409;107
Adainville;78113;0.028851270364995;0.85037290240877;824
Adam-lès-Passavant;25360;0.11101748195218;0.82550683415264;77
Adam-lès-Vercel;25530;0.11155077996047;0.82324754144188;67
Adamswiller;67320;0.12569279784955;0.85354838911354;459
Adast;65260;-0.0013526301806986;0.75002133068808;227
Adé;65100;-0.00050420817486576;0.75284774355298;674
Adelange;57380;0.11540504817046;0.85531799307889;208
Adelans-et-le-Val-de-Bithaine;70200;0.11168168265043;0.8327062906855;251
Adervielle-Pouchergues;65240;0.0070346541949169;0.74732574561174;80
Adilly;79200;-0.0054105207227944;0.81490878459467;284
Adinfer;62116;0.047220858828088;0.87602440344938;212
Adissan;34230;0.059835699473629;0.75983394746157;736
Adon;45230;0.048811048959731;0.83363713206551;198
Adriers;86430;0.013919001034326;0.80734081314597;797
Afa;20167;0.15359868139767;0.73276677656449;2055
Affieux;19260;0.030805061048029;0.79446416295933;349
Affléville;54800;0.10059398595891;0.85992859071608;196
Affoux;69170;0.076886609158808;0.80014621688209;248
Affracourt;54740;0.10770135537471;0.84582535511038;114
Affringues;62380;0.036234973952807;0.88469285963953;203
Agassac;31230;0.015499500796612;0.75696871902376;121
Agde;34300;0.060572629436768;0.75596996703597;19988
Agel;34210;0.049775812354127;0.7563966054426;167
Agen;47000;0.010840431546978;0.77157129733386;30170
Agen-d'Aveyron;12630;0.046784529011804;0.77417959730549;1012
Agencourt;21700;0.086917397082213;0.82254460007214;422
Agenville;80370;0.036637377593519;0.87554443524192;91
Agenvillers;80150;0.033515172835888;0.87577226867317;181
Ageville;52340;0.093486624865489;0.83967305351812;292
Agey;21410;0.083131006190501;0.82527407387337;258
Aghione;20270;0.16405123913634;0.73496787920543;245
Agincourt;54770;0.10880674199704;0.85055226630818;399
Agmé;47350;0.0060698710348734;0.77652124827296;102
Agnac;47800;0.0064577183156028;0.77938647671076;388
Agnat;43100;0.060189616937745;0.79140012954617;209
Agneaux;50180;-0.019416787096199;0.8572427261777;4476
Agnetz;60600;0.041660032830381;0.86187269831183;2637
Agnez-lès-Duisans;62161;0.046396664566168;0.87804607561189;650
Agnicourt-et-Séchelles;2340;0.068998675549886;0.86772918928599;211
Agnières;62690;0.045460975400737;0.87887025739024;150
Agnières-en-Dévoluy;5250;0.10265445704955;0.78004580881763;212
Agnin;38150;0.084779369747204;0.7913613805523;789
Agnos;64400;-0.010796798357291;0.75336166706435;751
Agny;62217;0.048132304905221;0.87718793852963;1954
Agon-Coutainville;50230;-0.027493788497759;0.85595309041983;2723
Agonac;24460;0.013094821336568;0.79049352293208;1451
Agonès;34190;0.065095929485673;0.76602013777868;179
Agonges;3210;0.055142701967827;0.81342041044045;357
Agos-Vidalos;65400;-0.0012653636712855;0.75115091046443;290
Agris;16110;0.0058565570330447;0.79895838045688;710
Agudelle;17500;-0.0082466806532553;0.79212737226083;126
Aguessac;12520;0.054090670113462;0.77066955098876;833
Aguilcourt;2190;0.06923623368031;0.86229447644948;359
Aguts;81470;0.033471540686497;0.7597272878599;187
Agy;14400;-0.013342064634863;0.85939529270778;280
Ahaxe-Alciette-Bascassan;64220;-0.020318548005461;0.75313383363309;320
Ahetze;64210;-0.027401670171773;0.7575795815988;1318
Ahéville;88500;0.10813768935218;0.84272250612432;67
Ahuillé;53940;-0.015179512628963;0.83809260056922;1379
Ahun;23150;0.035716227623163;0.80435920456853;1501
Ahuy;21121;0.087639771205519;0.82674793379965;1356
Aibes;59149;0.071437307192936;0.87681462992384;385
Aibre;25750;0.11685464836369;0.82989918573851;455
Aïcirits-Camou-Suhast;64120;-0.017826601125746;0.75644507497443;559
Aiffres;79230;-0.007272211285044;0.80785473665732;4598
Aigaliers;30700;0.075441860912196;0.76897751159019;386
Aiglemont;8090;0.083164936527264;0.86888793067629;1733
Aiglepierre;39110;0.10150543619723;0.81945633189306;342
Aigleville;27120;0.024812769664214;0.8553470881138;248
Aiglun;6910;0.12072829939299;0.76546746527346;106
Aiglun;4510;0.10698868514462;0.76906965696389;1038
Aignan;32290;0.0014398966901117;0.76266522059545;842
Aignay-le-Duc;21510;0.082602560128824;0.83191606421106;402
Aigne;34210;0.04880619701312;0.75629966637891;234
Aigné;72650;0.0020750044340413;0.83890706180959;1349
Aignerville;14710;-0.016076419511021;0.86081089598522;138
Aignes;31550;0.027726492600979;0.75607662663762;193
Aignes-et-Puypéroux;16190;0.0025064847744215;0.7932618788852;269
Aigneville;80210;0.028254942823846;0.87324639353729;658
Aigny;51150;0.073458971033065;0.85582219605226;189
Aigonnay;79370;-0.0045427078353487;0.80859163333095;449
Aigre;16140;0.00021816615975023;0.80102858873025;1141
Aigrefeuille;31280;0.027750735689276;0.7604108547327;577
Aigrefeuille-d'Aunis;17290;-0.016299437406072;0.80489736284581;3151
Aigrefeuille-sur-Maine;44140;-0.024410366023504;0.82162827292007;2151
Aigremont;78240;0.035241111362314;0.85349991958171;873
Aigremont;30350;0.07195119741478;0.7673582430684;449
Aigremont;89800;0.067888457786891;0.83285169928103;75
Aigremont;52400;0.099789203644621;0.83804406445835;18
Aiguebelette-le-Lac;73610;0.10147150586047;0.79480358284025;191
Aiguebelle;73220;0.11003815439558;0.79485684606206;901
Aigueblanche;73260;0.11355306098129;0.79414904442335;2664
Aiguefonde;81200;0.040414077075576;0.75913093951281;2631
Aigueperse;63260;0.055908706159929;0.80326837378604;2504
Aigueperse;69790;0.077405351327262;0.80771898202076;232
Aigues-Juntes;9240;0.025680600236714;0.75146596242139;49
Aigues-Mortes;30220;0.07319232202892;0.76038661996677;6012
Aigues-Vives;30670;0.072983854772216;0.76335850800622;2331
Aigues-Vives;11800;0.044219854947785;0.75453978295157;481
Aigues-Vives;34210;0.049184357565533;0.7563917451736;354
Aigues-Vives;9600;0.032758851731062;0.75045762305367;485
Aiguèze;30760;0.079519135573972;0.77323417511851;204
Aiguilhe;43000;0.067801189326921;0.78624657994172;1555
Aiguilles;5470;0.11989441372142;0.78159723331066;441
Aiguillon;47190;0.0059195808442711;0.77317598504869;4219
Aiguines;83630;0.10894247166647;0.76403728118906;219
Aigurande;36140;0.031881352635449;0.81043394159403;1668
Ailhon;7200;0.075781222536479;0.77837807076401;336
Aillant-sur-Milleron;45230;0.051152687443643;0.83414619530788;357
Aillant-sur-Tholon;89110;0.058487919419022;0.8355715191233;1454
Aillas;33124;-0.0012605117246745;0.77619154893002;668
Ailleux;42130;0.06879506856217;0.79939959967048;143
Aillevans;70110;0.11196287084965;0.83063614899115;122
Ailleville;10200;0.081681405997278;0.84215531939115;218
Aillevillers-et-Lyaumont;70320;0.11052782649626;0.83635695190778;1849
Aillianville;52700;0.095619800253886;0.84371639784315;185
Aillières-Beauvoir;72600;0.0057450480855191;0.84490902795831;237
Aillon-le-Jeune;73340;0.10613540833136;0.79619009108278;337
Aillon-le-Vieux;73340;0.10637781424721;0.79677192520193;169
Ailloncourt;70300;0.11147319874896;0.83349651715996;224
Ailly;27600;0.021797224508242;0.85800871788625;775
Ailly-le-Haut-Clocher;80690;0.034848413695419;0.87405120081872;831
Ailly-sur-Noye;80250;0.041252793887815;0.86842733696577;2643
Ailly-sur-Somme;80470;0.038377853234426;0.87137985050828;3322
Aimargues;30470;0.073478362174752;0.76244710770217;3442
Aime;73210;0.1160643969221;0.79513321560418;3229
Ainay-le-Château;3360;0.047017231034427;0.8152675123935;1165
Ainay-le-Vieil;18200;0.044515598986839;0.81451124122295;198
Aincille;64220;-0.020851833530184;0.75302717403143;103
Aincourt;95510;0.030955350718482;0.85647666789014;657
Aincreville;55110;0.089375394899816;0.86165451883953;84
Aingeray;54460;0.10477309324287;0.85065406564085;638
Aingeville;88140;0.10069579361395;0.84134079157177;68
Aingoulaincourt;52230;0.092264891393038;0.84571383523973;10
Ainharp;64130;-0.016202467133474;0.75504884619394;142
Ainhice-Mongelos;64220;-0.020144015246711;0.75408890977901;175
Ainhoa;64250;-0.026136304549929;0.7558633074343;599
Ainvelle;70800;0.10908307824965;0.83508669064684;219
Ainvelle;88320;0.10173815486461;0.83770957142545;148
Airaines;80270;0.033922411778452;0.8720295286562;2099
Airan;14370;-0.0026034553070938;0.85696635663559;692
Aire;8190;0.07262508536149;0.86361314066323;205
Aire-sur-l'Adour;40800;-0.0045669509236467;0.76274764543119;6003
Aire-sur-la-Lys;62120;0.041849121428965;0.88383472255728;9661
Airel;50680;-0.018864093785034;0.85911406289667;486
Airion;60600;0.042178795804782;0.8626241092134;470
Airon-Notre-Dame;62180;0.028962761107317;0.88027620670871;183
Airon-Saint-Vaast;62180;0.029122756751588;0.88018892160399;231
Airoux;11320;0.032589170918922;0.75684261834615;126
Airvault;79600;-0.0023852890985795;0.81729890509399;3097
Aiserey;21110;0.090107472916343;0.82332031231866;1138
Aisey-et-Richecourt;70500;0.10390042528792;0.83585274893442;141
Aisey-sur-Seine;21400;0.079921539214684;0.83340923205523;196
Aisonville-et-Bernoville;2110;0.061493762762367;0.87153018595182;291
Aïssey;25360;0.11052782649626;0.82500263117927;166
Aisy-sous-Thil;21390;0.074835841961392;0.82718429274426;220
Aisy-sur-Armançon;89390;0.073725620037209;0.83194995293593;277
Aiti;20244;0.16136539124273;0.73997109336634;24
Aiton;73220;0.10920912899299;0.79519140567399;1163
Aix;59310;0.057397088636525;0.88124100339262;933
Aix;19200;0.041606711351929;0.79615134208891;307
Aix-en-Diois;26150;0.094538673364612;0.78030280386282;255
Aix-en-Ergny;62650;0.034819318660511;0.88281666265158;104
Aix-en-Issart;62170;0.032438881248468;0.88098400834743;210
Aix-en-Othe;10160;0.065188045731065;0.8416462561488;2131
Aix-en-Provence;13100|13090|13540;0.095076814997132;0.75969819282499;134222
Aix-la-Fayette;63980;0.061454980478992;0.79441083315849;100
Aix-les-Bains;73100;0.10313925223648;0.79751368214454;25732
Aix-Noulette;62160;0.047308127288058;0.88011621730623;3836
Aixe-sur-Vienne;87700;0.019824026038764;0.79930745429677;5466
Aizac;7530;0.075655171793133;0.78050640252817;169
Aizanville;52120;0.08544357044545;0.83963909821423;25
Aize;36150;0.029719082212143;0.82209372689959;126
Aizecourt-le-Bas;80240;0.052941649261147;0.87234950746118;60
Aizecourt-le-Haut;80200;0.052073837413999;0.87204404288415;100
Aizelles;2820;0.066545529678894;0.86375375556879;94
Aizenay;85190;-0.028051315030183;0.81576206140793;6095
Aizier;27500;0.010961644907875;0.86273076881507;127
Aizy-Jouy;2370;0.061382251214098;0.86281805391979;242
Ajac;11300;0.037306413593616;0.75134485517082;196
Ajaccio;20090|20000;0.15245450416959;0.73165171101607;52880
Ajain;23380;0.034848413695419;0.80646330156679;1034
Ajat;24210;0.017739334746369;0.78809854216375;281
Ajoncourt;57590;0.10976667008958;0.85250123417293;91
Ajou;27410;0.013623272599732;0.85489135467224;217
Ajoux;7000;0.078549520232967;0.78130148927161;89
Alaigne;11240;0.036501622956952;0.75226597601285;300
Alaincourt;2240;0.058938792591572;0.86856795187133;465
Alaincourt;70210;0.10647962190225;0.83676900950745;89
Alaincourt-la-Côte;57590;0.11064417334638;0.85344658978087;91
Alairac;11290;0.039114766552808;0.75370588063524;708
Alan;31420;0.016406094927135;0.75450582764766;299
Alando;20212;0.16216047798617;0.73837126592051;23
Alata;20167;0.15258055491294;0.73264560273488;2459
Alba-la-Romaine;7400;0.080212414662369;0.77764117409038;1135
Alban;81250;0.042964195299761;0.76598624905381;848
Albaret-le-Comtal;48310;0.054585173354809;0.78320678129447;198
Albaret-Sainte-Marie;48200;0.056931663785332;0.78346377633968;452
Albas;46140;0.021549964565191;0.77612370490124;545
Albas;11360;0.047662028107417;0.75062733299414;59
Albé;67220;0.12773871310035;0.84396367235035;457
Albefeuille-Lagarde;82290;0.021874786994397;0.76886599171954;644
Albens;73410;0.1037501231339;0.79912323012837;2650
Albepierre-Bredons;15300;0.050105486729943;0.78716776736278;237
Albert;80300;0.046246374895714;0.87266948626615;10065
Albertacce;20224;0.15679359253366;0.73873971425732;200
Albertville;73200;0.1114635115005;0.79716460830467;17340
Albestroff;57670;0.11964232055711;0.85403321759;639
Albi;81990|81000;0.037398529839009;0.76669405069253;46274
Albiac;31460;0.031076564079378;0.76013934545957;159
Albiac;46500;0.031638944639008;0.78130148927161;66
Albias;82350;0.025346055188936;0.76952053013645;2338
Albières;11330;0.043192045375772;0.74957525120549;73
Albiès;9310;0.029748160602296;0.74662759793196;156
Albiez-le-Jeune;73300;0.11085750087207;0.78967906169169;57
Albiez-Montrond;73300|73530;0.11063933804453;0.7892136742912;382
Albignac;19190;0.029316678571432;0.78781737893168;258
Albigny-sur-Saône;69250;0.084304253486357;0.80051952548788;2673
Albine;81240;0.044307119246568;0.7585394514347;547
Albitreccia;20128;0.15605181894629;0.73065781929725;867
Albon;26140;0.084663006252325;0.78969843618862;1573
Albon-d'Ardèche;7190;0.077288987832383;0.78229538099042;165
Alboussière;7440;0.082539534757151;0.7844188524856;756
Albussac;19380;0.0320074012982;0.78782709946966;668
Alby-sur-Chéran;74540;0.10509306372546;0.79969048344055;1630
Alçay-Alçabéhéty-Sunharette;64470;-0.015897034805658;0.75217875748715;246
Aldudes;64430;-0.024895184096979;0.75221264621202;395
Alembon;62850;0.032947942410241;0.88635094373421;395
Alençon;61000;0.0015514057676742;0.84531629186801;28935
Alénya;66200;0.052039907077236;0.74420838239773;2318
Aléria;20270;0.166029302036;0.73484663879682;1966
Alès;30100;0.071233675238086;0.77018472251231;39346
Alet-les-Bains;11580;0.039366880523065;0.75043824855673;464
Alette;62650;0.031924986865435;0.88170153052413;249
Aleu;9320;0.022102657876355;0.74862503532855;122
Alex;74290;0.10886006347549;0.80091220859062;792
Alexain;53240;-0.013390549771162;0.84177715051638;402
Aleyrac;26770;0.08620472685213;0.77662790787463;45
Alfortville;94140;0.042198186946469;0.85181280703114;36232
Algajola;20220;0.15467494801796;0.74361689431964;216
Algans;81470;0.0330497459041;0.76089568320914;200
Algolsheim;68600;0.13192264736379;0.837850186331;982
Algrange;57440;0.10552454575633;0.86152362447196;6198
Alièze;39270;0.097287563274657;0.81310043163549;144
Alignan-du-Vent;34290;0.058318238606881;0.75868492660924;1134
Alincourt;8310;0.075824848444085;0.86227989564251;78
Alincthun;62142;0.031435316845347;0.88542003577518;343
Alise-Sainte-Reine;21150;0.078336192707272;0.82968586653519;674
Alissas;7210;0.08081359831132;0.78039488265752;1026
Alix;69380;0.081235376448961;0.80133884699725;690
Alixan;26300;0.087712500470413;0.78494729022489;2080
Alizay;27460;0.020517321771917;0.86079152148829;1262
Allain;54170;0.10314410418309;0.84734282429951;387
Allaines;80200;0.051390241412877;0.87201494784924;395
Allaines-Mervilliers;28310;0.031891039883915;0.84132141707484;274
Allainville;28500;0.022737765620285;0.85036318187079;120
Allainville;78660;0.033107919329161;0.84571869550872;293
Allaire;56350;-0.037781525693276;0.83141186123767;3188
Allamont;54800;0.10060852515398;0.85734938577936;110
Allamps;54112;0.1014084804888;0.84731858953358;511
Allan;26780;0.083533393186454;0.77666179659949;1385
Allanche;15160;0.051254507582257;0.78937852396268;1101
Alland'Huy-et-Sausseuil;8130;0.079548230608881;0.86419004793438;215
Allarmont;88110;0.12243484469714;0.84618894317819;271
Allas-Bocage;17150;-0.0085812080159803;0.79211285803289;150
Allas-Champagne;17500;-0.0058274625182841;0.79361574641505;184
Allas-les-Mines;24220;0.018699264919504;0.78249411938677;224
Allassac;19240;0.025801778227502;0.78993599015786;3366
Allauch;13190;0.095658582537261;0.75633841537278;18907
Allègre;43270;0.06478081094969;0.78885001964436;1007
Allègre-les-Fumades;30500;0.073890453063928;0.77143554269729;616
Alleins;13980;0.090078377881433;0.76260709710465;2071
Allemagne-en-Provence;04550|04500;0.10485065780962;0.76415845501866;379
Allemanche-Launay-et-Soyer;51260;0.066128586843107;0.84831241467337;115
Allemans;24600;0.0054056687761833;0.79044505340023;540
Allemans-du-Dropt;47800;0.0050614546851419;0.77891136877229;447
Allemant;2320;0.060252642309416;0.8632544128644;117
Allemant;51120;0.066351605778456;0.85104681532261;169
Allemond;38114;0.10537910387129;0.78769134483309;765
Allenay;80530|80130;0.026116915488837;0.87423056471814;279
Allenc;48190;0.063898443262708;0.77742778830803;189
Allenjoie;25490;0.12036469468041;0.82963739700336;583
Allennes-les-Marais;59251;0.051521144102834;0.88204095040506;3234
Allenwiller;67310;0.12875681461796;0.84919478652154;453
Allerey;21230;0.077487767840622;0.82360147555075;181
Allerey-sur-Saône;71350;0.086975570507274;0.81866124514962;616
Allériot;71380;0.086325925648863;0.81707100508371;814
Allery;80270;0.033141864230086;0.87198105912437;752
Alles-sur-Dordogne;24480;0.015131027492664;0.78293533860037;321
Alleuze;15100;0.053828868894739;0.78474369155956;193
Allevard;38580;0.10601904483648;0.79225826662841;3081
Allèves;74540;0.10613540833136;0.79851722782231;262
Allex;26400;0.085782932069731;0.78125788000876;2009
Alleyrac;43150;0.069595003091036;0.78348801110559;118
Alleyras;43580;0.064276599653931;0.78377403460666;231
Alleyrat;23200;0.037447016015606;0.80265265094202;166
Alleyrat;19200;0.038692971770409;0.79549200998205;99
Allez-et-Cazeneuve;47110;0.010985870311118;0.77477101880457;579
Alliancelles;51250;0.085230242919756;0.85190009213586;132
Alliat;9400;0.027692562264216;0.74729665057681;62
Allibaudières;10700;0.071689400357247;0.84799729613739;269
Allichamps;52130;0.08540962346393;0.84753676900588;371
Allier;65360;0.0020653004107821;0.75359436076459;264
Allières;9240;0.023843135597858;0.7511315359675;65
Alligny-Cosne;58200;0.05348463867909;0.82823630795386;824
Alligny-en-Morvan;58230;0.072930516649009;0.82378569971916;656
Allineuc;22460;-0.050134581764851;0.84320247433178;497
Allinges;74200;0.11283068685798;0.80871287373958;3021
Allogny;18110;0.040496489427746;0.82424629342967;896
Allondans;25550;0.11779518531454;0.82937074799921;191
Allondaz;73200;0.11120171444297;0.79772700134785;177
Allondrelle-la-Malmaison;54260;0.097137277765391;0.86409796913967;519
Allonne;60000;0.036850688474456;0.86226052114559;1258
Allonne;79130;-0.0066952748855811;0.81300349257181;654
Allonnes;49650;0.00041208968633237;0.82542434273787;2558
Allonnes;72700;0.0027004084147862;0.83723932375597;12332
Allonnes;28150;0.028948223992835;0.84356126870965;264
Allons;47420;-0.00093083643859776;0.77145491719423;172
Allons;4170;0.11509475661396;0.76756670200271;81
Allonville;80260;0.041257645834426;0.87163198528448;572
Allonzier-la-Caille;74350;0.106794757083;0.80290964598721;1080
Allos;4260;0.11565230603292;0.77217729963992;637
Allouagne;62157;0.043710791705418;0.88192943053441;3055
Alloue;16490;0.0090078365397866;0.80329260855196;531
Allouis;18500;0.038891747617459;0.82323788748292;771
Allouville-Bellefosse;76190;0.011814901955487;0.8656202985978;986
Alluy;58110;0.063544521637404;0.82090109678443;403
Alluyes;28800;0.023784962172796;0.84173354125353;619
Ally;15700;0.040384982040666;0.7884379620447;700
Ally;43380;0.057857665702298;0.78822464284138;222
Almayrac;81190;0.037878498046469;0.76973870960876;275
Almenêches;61570;0.0019586434098678;0.84993168319516;645
Almont-les-Junies;12300;0.040011673434865;0.77837321049501;425
Alos;81140;0.03277340965149;0.76838602351208;130
Alos;9200;0.020008262690739;0.7488916843327;131
Alos-Sibas-Abense;64470;-0.015286169109729;0.75256658032089;319
Aloxe-Corton;21420;0.084827855923801;0.82144404875166;172
Alpuech;12210;0.049766125105661;0.78126274027774;79
Alquines;62850;0.034795075572212;0.88559460598464;751
Alrance;12430;0.046818455187377;0.77024770627209;417
Alsting;57520|57515;0.1221730476396;0.85832383642223;2664
Altagène;20112;0.15831590534702;0.7279089709991;41
Alteckendorf;67270;0.13265472538031;0.8515073424541;746
Altenach;68210;0.12413654637705;0.83092217249223;344
Altenheim;67490;0.13030337051961;0.85030499180098;215
Althen-des-Paluds;84210;0.086529549281334;0.76802243544425;1988
Altiani;20251;0.16213624322025;0.73713009969447;95
Altier;48800;0.06737455924267;0.77623036450291;207
Altillac;19120;0.032254661241251;0.7849812455288;801
Altkirch;68130;0.12632791183526;0.83119854203436;5386
Altorf;67120;0.13139905324872;0.84683862132612;1100
Altrippe;57660;0.11904599717715;0.85572039671959;404
Altviller;57730;0.11748490208041;0.85647187420018;534
Altwiller;67260;0.12180459098041;0.85397509409921;399
Aluze;71510;0.081768674457248;0.8176382583959;217
Alvignac;46500;0.029563940595079;0.78239718032309;573
Alvimare;76640;0.010976184102951;0.8657705674623;462
Alzen;9240;0.025709676546273;0.75029763365117;163
Alzi;20212;0.16228652872952;0.73837126592051;17
Alzing;57320;0.1143917902771;0.86008371984958;399
Alzon;30770;0.060034475320679;0.76737275729632;208
Alzonne;11170;0.037990005433549;0.75492274551632;1221
Amage;70280;0.11333003788475;0.83489281251949;293
Amagne;8300;0.078539816339745;0.86425309827317;705
Amagney;25220;0.10735714180381;0.82566196328613;680
Amailloux;79350;-0.0055123257770977;0.81588809550652;720
Amance;10140;0.078835543734041;0.84288249552682;235
Amance;70160;0.10570877824711;0.83430618471036;754
Amance;54770;0.10957275035033;0.85092557491398;296
Amancey;25330;0.10601420953463;0.82097866135119;616
Amancy;74800;0.11046963642644;0.80413623140628;1756
Amange;39700;0.097113034677094;0.82318941795109;288
Amanlis;35150;-0.025758146078111;0.83785498002096;1442
Amanty;55130;0.09792267726037;0.84679980575323;47
Amanvillers;57111|57865;0.10546637233126;0.8581153774879;1934
Amanzé;71610|71800;0.074040738573192;0.80862558863485;203
Amarens;81170;0.033398813502198;0.76859934271539;78
Amathay-Vésigneux;25330;0.1081861672064;0.82073138684396;129
Amayé-sur-Orne;14210;-0.0076697447739412;0.85670456790042;686
Amayé-sur-Seulles;14310;-0.012469399800807;0.85658332749181;163
Amazy;58190;0.062444007767631;0.82686424736026;246
Ambacourt;88500;0.10718745683048;0.84383277798278;277
Ambarès-et-Lagrave;33440;-0.0084842372232336;0.78412310844655;11206
Ambax;31230;0.016328532440981;0.75691052895395;72
Ambazac;87240;0.02448794723501;0.80212421320273;4836
Ambel;38970;0.10348831775399;0.78198991641339;22
Ambenay;27250;0.012726364677378;0.85236547953636;465
Ambérac;16140;0.0011587066703711;0.80030134601559;337
Ambérieu-en-Bugey;1500;0.093355722175535;0.80208546420886;11436
Ambérieux;69480;0.082646194358808;0.80156668042851;427
Ambérieux-en-Dombes;1330;0.085593864277093;0.80278361188862;1408
Ambernac;16490;0.0094538723298883;0.8025072423465;422
Amberre;86110;0.0028652547052958;0.8162371693464;424
Ambert;63600;0.065275314191035;0.79501683546454;7309
Ambès;33810;-0.0092405406430053;0.78562606340773;2824
Ambeyrac;12260;0.033941802920141;0.77686060157487;191
Ambialet;81430;0.041475812823163;0.76696069969667;381
Ambiegna;20151;0.15348231790279;0.73446367623206;43
Ambierle;42820;0.067985425978894;0.80465980887659;1728
Ambiévillers;70210;0.10750742731308;0.83733626281963;106
Ambillou;37340;0.0077812537214666;0.82817325761505;1301
Ambillou-Château;49700;-0.0059971433304249;0.82489111130862;807
Ambilly;74100;0.10856432775881;0.8062160936386;5808
Amblainville;60110;0.037015517339986;0.85874075429088;1688
Amblans-et-Velotte;70200;0.11185621124799;0.83217299267722;288
Ambleny;2290;0.055549953393959;0.86184846354592;1112
Ambléon;1300;0.097777218730581;0.79849299305639;86
Ambleteuse;62164;0.028022238720627;0.8867872360998;1976
Ambleville;16300;-0.0038688191084163;0.79504593049945;217
Ambleville;95710;0.02966089422292;0.85782935398683;350
Amblie;14480;-0.0084890896899934;0.860263083749;292
Amblimont;8210;0.08834758948899;0.86622144063485;143
Ambloy;41310;0.016886060013702;0.83275476021735;155
Ambly-Fleury;8130;0.078253776193914;0.8637198002649;151
Ambly-sur-Meuse;55300;0.094984694590551;0.85557012785507;254
Amboise;37530|37400;0.017206031536594;0.82740726590652;11457
Ambon;56190;-0.044622258588498;0.82998161057425;1255
Ambonil;26800;0.085627786291477;0.78182020647292;100
Ambonnay;51150;0.072823865369729;0.85656395299486;934
Ambonville;52110;0.087513720462173;0.84319768064182;78
Ambrault;36120;0.034189062863193;0.81657166237931;715
Ambres;81500;0.031653483834084;0.76327608317048;732
Ambricourt;62310;0.037975449593716;0.88088706928375;102
Ambrief;2200;0.059370291267192;0.86078666121929;84
Ambrières;51290;0.084440008122923;0.84882633818472;224
Ambrières-les-Vallées;53300;-0.010995574204341;0.84475875909379;2903
Ambrines;62127;0.043027216510242;0.87808003091578;169
Ambronay;1500;0.093539946343939;0.80299207082295;2146
Ambrugeat;19250;0.036942808881036;0.7945950573269;216
Ambrumesnil;76550;0.017366026140567;0.8701920806621;450
Ambrus;47160;0.0042760567506099;0.7719591201676;71
Ambutrix;1500;0.09323932539114;0.80179464701783;586
Amécourt;27140;0.030262071630086;0.86182902246996;145
Amel-sur-l'Étang;55230;0.098586861313857;0.85987526091524;150
Amelécourt;57170;0.11348518366301;0.85241880933719;117
Amélie-les-Bains-Palalda;66110;0.046605144306441;0.74132377946302;3475
Amendeuix-Oneix;64120;-0.018224152819846;0.75668748921265;367
Amenoncourt;54450;0.11850300359801;0.84871481831408;96
Amenucourt;95510;0.028637938678112;0.85706815596825;173
Ames;62190;0.042135161574796;0.88212816893076;518
Amettes;62260;0.041766704915605;0.88191970999643;474
Ameugny;71460;0.081642623713904;0.81199988031501;156
Ameuvelle;88410;0.10376953092034;0.8367544952795;87
Amfreville;50480;-0.024240685211363;0.86237690128522;290
Amfreville;14860;-0.0040966717851727;0.85956014237926;1056
Amfreville-la-Campagne;27370;0.016246100323162;0.85892497845928;873
Amfreville-la-Mi-Voie;76920;0.019664049119846;0.86217323604085;2869
Amfreville-les-Champs;27380;0.022883203344128;0.86067520792769;342
Amfreville-les-Champs;76560;0.01426806655183;0.86737532175616;99
Amfreville-sous-les-Monts;27590|27380;0.022000852301903;0.86053459302213;471
Amfreville-sur-Iton;27400;0.020100381016725;0.85776630364801;716
Amfroipret;59144;0.065178341837844;0.87753701236952;156
Amiens;80090|80000|80080;0.040026212629942;0.87082231773408;135501
Amifontaine;2190;0.06838781297485;0.86366161019506;387
Amigny;50620;-0.02058034714359;0.85795538808542;123
Amigny-Rouy;2700;0.057649202606782;0.86582875753211;626
Amillis;77120;0.054638511478016;0.85067830040677;685
Amilly;45200;0.048335916054125;0.83732654228165;11497
Amilly;28300;0.024357046625648;0.84551989053334;1958
Amions;42260;0.070409493459733;0.80072312415323;238
Amirat;6910;0.11913325731474;0.7660443725446;41
Ammerschwihr;68770;0.12709874716803;0.83993484225329;1892
Ammerzwiller;68210;0.12512071755789;0.83235235657663;314
Amné;72540;-0.00099871232647238;0.83844160783007;334
Amnéville;57360;0.10720684797217;0.8596958304368;9314
Amoncourt;70170;0.10581058590216;0.83314264963011;304
Amondans;25330;0.10544212924297;0.82150709909048;96
Amont-et-Effreney;70310;0.11443057256047;0.83575088302271;194
Amorots-Succos;64120;-0.019397398035107;0.75687657365006;204
Amou;40330;-0.012973607975672;0.76084721367731;1452
Ampilly-le-Sec;21400;0.079121583879872;0.83440798404305;377
Ampilly-les-Bordes;21450;0.080774816027945;0.83134881089887;90
Amplepuis;69550;0.075601850314682;0.80238120824791;4948
Amplier;62760;0.041912142639449;0.87503051173056;248
Ampoigné;53200;-0.014394114174283;0.83446131384386;421
Amponville;77760;0.044147125682892;0.84262556706065;301
Ampriani;20272;0.16331432581796;0.73743070400251;14
Ampuis;69420;0.083930944880554;0.793945445758;2178
Ampus;83111;0.11138593861137;0.76109442160549;707
Amuré;79210;-0.010947089068042;0.80747656778252;322
Amy;60310;0.049324943342764;0.86667717407639;345
Anais;17540;-0.01585340161597;0.80612880853386;210
Anais;16560;0.0036506528999022;0.79890505065605;466
Anan;31230;0.01426806655183;0.75669234948165;230
Ance;64570;-0.012076701093615;0.75305620248731;215
Anceaumeville;76710;0.018582903505219;0.865242129723;714
Anceins;61550;0.0087702794496595;0.85283086693686;175
Ancelle;5260;0.10828313955959;0.77882894393654;619
Ancemont;55320;0.094364144767049;0.8564621536622;591
Ancenis;44150;-0.020560956001903;0.82676730829657;7010
Ancerville;55170;0.087625232010443;0.84885543321963;2726
Ancerville;57580;0.11152168492556;0.85573491094753;266
Ancerviller;54450;0.11928840309299;0.84705194052943;241
Ancey;21410;0.084246063416538;0.82604978611989;345
Anchamps;8500;0.081574754718;0.87149137037893;192
Anché;37500;0.0054056687761833;0.82271431001261;364
Anché;86700;0.0046348266814842;0.80885342206611;282
Anchenoncourt-et-Chazel;70210;0.10675597479962;0.83539215522388;226
Ancienville;2600;0.056092942811902;0.85899774933606;78
Ancier;70100;0.098295969221415;0.82813936889018;424
Ancinnes;72610;0.003122202156887;0.84417213128468;908
Ancizan;65440;0.0059292675725876;0.74829540256463;254
Ancône;26200;0.082520143615464;0.77814051679477;947
Ancourt;76370;0.020701541779135;0.87109382700721;681
Ancourteville-sur-Héricourt;76560;0.011567658657192;0.86736560121818;218
Ancretiéville-Saint-Victor;76760;0.017172102240128;0.86670140884231;272
Ancretteville-sur-Mer;76540;0.0089157182137997;0.86898973000897;178
Ancteville;50200;-0.025796942925648;0.85700031193948;204
Anctoville;14240;-0.012382133421431;0.85704392120233;905
Anctoville-sur-Boscq;50400;-0.026756875179378;0.85251095471092;418
Ancy;69490;0.078685258224778;0.80003469701144;475
Ancy-le-Franc;89160;0.072654180396399;0.83386496549677;1108
Ancy-le-Libre;89160;0.07194634546817;0.83431583866932;175
Ancy-sur-Moselle;57130;0.10574270858387;0.85619550465805;1475
Andainville;80140;0.031183221600442;0.87078356874021;196
Andance;7340;0.083770955478068;0.78961121766292;984
Andancette;26140;0.08388731065057;0.78964031269784;1156
Andard;49800;-0.0069328319757081;0.82825568245079;2184
Andé;27430;0.021666325979476;0.85923044303632;996
Andechy;80700;0.047288719501614;0.86771467505807;212
Andel;22400;-0.044777400205562;0.84633441835273;900
Andelain;2800;0.058851524131602;0.86640566480326;159
Andelaroche;3120;0.065415916613024;0.80732629891803;267
Andelarre;70000;0.1064263004238;0.83062156818419;128
Andelarrot;70000;0.10655235116715;0.83045678509175;163
Andelat;15100;0.053470099484013;0.78648413391096;335
Andelnans;90400;0.11981199720806;0.83082523342856;1203
Andelot-Blancheville;52700;0.092478210596352;0.8420147044856;1004
Andelot-en-Montagne;39110;0.10355135977041;0.81771102927268;548
Andelot-Morval;39320;0.094514430276314;0.8102884664195;80
Andelu;78770;0.031852259681134;0.85311695701695;370
Andernay;55800;0.086495602299814;0.85156067225494;228
Andernos-les-Bains;33510;-0.019145284064849;0.78089422536191;9254
Anderny;54560;0.10267870013784;0.86105817049244;222
Andert-et-Condon;1300;0.098717755681434;0.79928321953085;275
Andeville;60570;0.037791229586499;0.85972978574071;2996
Andigné;49220;-0.013579639410044;0.83193543870798;262
Andillac;81140;0.03305459785071;0.76790612188364;102
Andilly;17230;-0.017928406700198;0.80727782938619;1478
Andilly;95580;0.040137720017022;0.85526952354704;2013
Andilly;54200;0.10266414429801;0.85112437988937;218
Andilly;74350;0.10582028979538;0.8038211128703;595
Andilly-en-Bassigny;52360;0.096448833978849;0.83641993566756;104
Andiran;47170;0.0048481406833131;0.76964656423504;226
Andlau;67140;0.12947433679465;0.84447752928268;1654
Andoins;64420;-0.0039754761093307;0.75581483790247;522
Andolsheim;68280;0.12943070256467;0.83884887173977;1985
Andon;6750;0.11842058708465;0.76399846561617;341
Andonville;45480;0.03544957445783;0.84247043792715;217
Andornay;70200;0.11510931245379;0.83174149400159;148
Andouillé;53240;-0.013671740050977;0.84084144886738;2042
Andouillé-Neuville;35250;-0.027774976696981;0.84287284156786;504
Andouque;81350;0.040292861634086;0.76837150928413;370
Andrein;64390;-0.015727353993517;0.75732258655361;111
Andres;62340;0.033398813502198;0.8877229377488;1445
Andrest;65390;0.0010811267592373;0.7560184365678;1229
Andrésy;78570;0.03593439045071;0.85490107521022;12485
Andrezé;49600;-0.016609722720796;0.82331059178068;1799
Andrezel;77390;0.049106776354027;0.84842393454402;365
Andrézieux-Bouthéon;42160;0.074297692006493;0.7945950573269;9153
Andryes;89480;0.060848965689378;0.82938046853719;445
Anduze;30140;0.069590151144426;0.76889994702343;3004
Anères;65150;0.00813517170573;0.75170358296965;147
Anet;28260;0.025132742227404;0.8527581626391;2651
Anetz;44150;-0.019227717222965;0.82696611327194;1367
Angaïs;64510;-0.0044311988878233;0.75466095678116;739
Angé;41400;0.021705106182255;0.82609825565172;791
Angeac-Champagne;16130;-0.005177816099427;0.79602044772134;479
Angeac-Charente;16120;-0.0013332395591601;0.79641799109306;399
Angecourt;8450;0.086898005940526;0.86630872573958;350
Angeduc;16300;-0.00091144581705929;0.79369331098179;96
Angely;89440;0.070176774792353;0.83015132051471;142
Angeot;90150;0.12242999275053;0.83246387644728;280
Angers;49000|49100;-0.009701115628183;0.82851747118595;151279
Angerville;14430;-0.00053330281966338;0.8593904324388;123
Angerville;91670;0.03485809886329;0.84320733460078;3265
Angerville-Bailleul;76110;0.007960638946978;0.86684688401685;203
Angerville-l'Orcher;76280;0.004935407062689;0.86548940423023;1222
Angerville-la-Campagne;27930;0.020318548005461;0.85498829373592;1217
Angerville-la-Martel;76540;0.0087557412948808;0.86851462207049;672
Angervilliers;91470;0.03602165891068;0.84810395573904;1381
Angeville;82210;0.017942962540031;0.76792549638058;169
Angevillers;57440;0.10546152038465;0.86196963737551;1185
Angey;50530;-0.026015109914385;0.85090134014807;140
Angicourt;60940;0.043710791705418;0.8606363923548;1525
Angiens;76740;0.013822030761728;0.86967329688177;625
Angirey;70700;0.10066186327719;0.82826054271979;134
Angivillers;60130;0.043676865529844;0.86369556549897;200
Anglade;33390;-0.011077988637105;0.78908757361358;769
Anglards-de-Saint-Flour;15100;0.05504089431278;0.7850636037855;283
Anglards-de-Salers;15380;0.042590886693958;0.78897126005298;755
Anglars;46120;0.033233984636668;0.78083603529209;163
Anglars-Juillac;46140;0.021103945419846;0.77661818733664;331
Anglars-Nozac;46300;0.024681871135447;0.78157785881372;260
Anglars-Saint-Félix;12390;0.038726918751929;0.77530917708185;562
Anglefort;1350;0.1013842374005;0.80131461223134;769
Anglemont;88700;0.1163892193513;0.84440482498492;165
Angles;85750;-0.02448794723501;0.80996855419356;1582
Angles;4170;0.11444511175555;0.76697042023464;67
Anglès;81260;0.044690131745591;0.76033815043494;563
Angles-sur-l'Anglin;86260;0.015484944956779;0.81500086338937;365
Anglesqueville-l'Esneval;76280;0.0041403049748608;0.86626025620774;473
Anglesqueville-la-Bras-Long;76740;0.013657201896198;0.86882002006849;135
Anglet;64600;-0.026422346776356;0.75895157561339;35263
Angliers;17540;-0.016604870774185;0.80653600586454;364
Angliers;86330;0.0020750044340413;0.8193836275953;666
Anglure;51260;0.066603703103957;0.84799243586839;862
Anglure-sous-Dun;71170;0.076110896912295;0.8068996605114;148
Angluzelles-et-Courcelles;51230;0.06773816395525;0.84926269712934;143
Angoisse;24270;0.019857973020283;0.7928594752445;572
Angomont;54540;0.12126160572366;0.84676105675938;90
Angos;65690;0.0026325323968744;0.75388524453464;203
Angoulême;16000;0.0027004084147862;0.79679129969886;43171
Angoulins;17690;-0.019368303000198;0.80470341813944;3501
Angoumé;40990;-0.019790095702;0.76257314180076;179
Angous;64190;-0.014171096279232;0.75566456903795;111
Angoustrine-Villeneuve-des-Escaldes;66760;0.03420845400488;0.74145467383059;549
Angoville;14220;-0.0065401327483678;0.85417869276454;30
Angoville-au-Plain;50480;-0.021860249879915;0.86131030526865;53
Angoville-sur-Ay;50430;-0.027018674317506;0.85963770694602;230
Angres;62143;0.048117749065388;0.87982047326718;4469
Angresse;40150;-0.023978886073235;0.7620252629855;1097
Angrie;49440;-0.016963622499856;0.83028221488228;678
Anguerny;14610;-0.0069861690586181;0.85987040064626;724
Anguilcourt-le-Sart;2800;0.059947206860709;0.86725408134753;268
Angy;60250;0.040661318293276;0.86095637115978;1186
Anhaux;64220;-0.022534137826623;0.75345860612801;247
Anhiers;59194;0.055065137401079;0.87976228319736;985
Aniane;34150;0.062608836633161;0.76245196797116;2098
Aniche;59580;0.056655323371532;0.87844361898361;9768
Anisy;14610;-0.0068310269214046;0.8596086119111;633
Anizy-le-Château;2320;0.060242955060951;0.86403012511092;1903
Anjeux;70800;0.10835101687788;0.83570727375986;165
Anjou;38150;0.085201164529603;0.79145345934698;809
Anjouin;36210;0.031464411880257;0.82362085004767;339
Anjoutey;90170;0.12099494839714;0.83255595524198;591
Anla;65370;0.010195637594881;0.75053518762041;48
Anlezy;58270;0.061193162615513;0.81958722626063;310
Anlhiac;24160;0.019668882341105;0.79101230671241;300
Annay;62880;0.05024609331312;0.88073680041925;4718
Annay;58450;0.05119631751244;0.82964711754134;272
Annay-la-Côte;89200;0.06783028436183;0.82962288277542;338
Annay-sur-Serein;89310;0.069081108708003;0.83304078371842;264
Annebault;14430;0.0010035643381019;0.85962798640804;347
Annecy;74000;0.10693051171956;0.8012273271266;50348
Annecy-le-Vieux;74940;0.10725048220216;0.80142606552295;18885
Annelles;8310;0.077109623932967;0.86268715955222;118
Annemasse;74100;0.10877279501552;0.80623060786655;27253
Annéot;89200;0.067733312008637;0.82939984303412;102
Annepont;17350;-0.010738627012824;0.80016559137901;267
Annequin;62149;0.047565072398981;0.88145432259595;2157
Annesse-et-Beaulieu;24430;0.010001713694442;0.78826339183523;1246
Annet-sur-Marne;77410;0.047468104206978;0.85393627852632;2482
Anneux;59400;0.0545318352316;0.87532625576962;226
Anneville-Ambourville;76480;0.015465554855389;0.8632495525954;946
Anneville-en-Saire;50760;-0.022427480305561;0.86631358600858;324
Annéville-la-Prairie;52310;0.088774236218;0.84119538297625;84
Anneville-sur-Mer;50560;-0.027581054877136;0.85728633544055;196
Anneville-sur-Scie;76590;0.018994994394395;0.86969273795771;408
Anneyron;26140;0.085336894199034;0.79014444909219;3319
Annezay;17380;-0.012440322450952;0.80302116585786;175
Annezin;62232;0.045664603194398;0.88199241429419;5551
Annullin;59112;0.05111875710688;0.88191970999643;9719
Annoire;39120;0.092080658902253;0.81952417592184;411
Annois;2480;0.05549176748533;0.86778737935583;383
Annoisin-Chatelans;38460;0.092337620657932;0.79853174205026;541
Annoix;18340;0.044263489177771;0.81960660075758;263
Annonay;7100;0.08149233820464;0.78964031269784;17522
Annonville;52230;0.092012781583969;0.84444843424777;34
Annot;4240;0.11638436740469;0.76739705864127;988
Annouville-Vilmesnil;76110;0.0075630877730268;0.86704076214422;385
Annoux;89440;0.07071008112302;0.83123729102822;82
Annoville;50660;-0.026795655382157;0.85466831493096;547
Anor;59186;0.071510011490696;0.87246582102179;3093
Anos;64160;-0.0050759933600695;0.75745348092119;149
Anost;71550;0.071573036862367;0.82167194876196;679
Anould;88650;0.12126645767027;0.84100143826986;2992
Anoux;54150;0.10243143395301;0.86001580924178;287
Anoye;64350;-0.0023755852053576;0.7573614021265;142
Anquetierville;76490;0.011068302428938;0.8645003727804;337
Anrosey;52500;0.099018343344721;0.8349219075544;141
Ansac-sur-Vienne;16500;0.011262225289079;0.80275451685371;852
Ansacq;60250;0.041199472409365;0.86122302016391;263
Ansan;32270;0.013511763132058;0.76255376730384;63
Ansauville;54470;0.10167512949294;0.85209397026323;79
Ansauvillers;60120;0.041698831758512;0.86508700058951;1049
Anse;69480;0.082365006159588;0.801726669831;4744
Anserville;60540;0.038576629081476;0.85914315793158;435
Ansignan;66220;0.043899884465192;0.74633185389291;198
Ansost;65140;0.0019198621667907;0.75803045477135;62
Ansouis;84240;0.095358003196352;0.76334885404728;1033
Anstaing;59152;0.05569054333238;0.88321413944428;1183
Antagnac;47700;0.00015514231601448;0.77412626750465;333
Anterrieux;15110;0.053135573161586;0.7825425889186;130
Anteuil;25340;0.11450813712722;0.82708242683255;482
Antezant-la-Chapelle;17400;-0.008013976029888;0.80258480691324;339
Anthé;47370;0.016774551586326;0.77441715127473;208
Anthelupt;54110;0.11191923661966;0.8483996997781;430
Anthenay;51700;0.065207436872751;0.85768387881229;52
Antheny;8260;0.075267323992255;0.87003695152862;108
Antheuil;21360;0.082777088726387;0.82334934077454;65
Antheuil-Portes;60162;0.048054727854905;0.86387013570842;416
Anthien;58800;0.065275314191035;0.82577341657776;168
Anthon;38280;0.090272305943062;0.79922988973001;917
Anthy-sur-Léman;74200;0.11214711166281;0.80906188100043;1767
Antibes;06160|06600;0.12425290154955;0.76062417393601;72412
Antichan;65370;0.010176246453194;0.7503897790249;27
Antichan-de-Frontignes;31510;0.01161129184688;0.75002612437804;84
Antignac;15240;0.044423482741448;0.79138075504923;292
Antignac;31110;0.010476827874696;0.74745177971031;100
Antigny;86310;0.014893470402538;0.81220833924932;598
Antigny;85120;-0.01341479285946;0.81371615447951;1127
Antigny-la-Ville;21230;0.079548230608881;0.8220597715957;105
Antilly;60620;0.052098076341107;0.85785358875275;313
Antilly;57640;0.10904429596627;0.85861958046128;107
Antin;65220;0.004920851222856;0.75628508557195;136
Antisanti;20270;0.16313011829431;0.73593260931031;418
Antist;65200;0.0022446853762195;0.75253748528598;106
Antogny le Tillac;37800;0.010113205477062;0.81989748452763;447
Antoigné;49260;-0.0019586434098678;0.82178340205357;414
Antoigny;61410;-0.0063801558294489;0.8469355603898;118
Antoingt;63340;0.055399663723506;0.79414904442335;335
Antonaves;5300;0.10129696894053;0.77261365858453;158
Antonne-et-Trigonant;24420;0.01453956958318;0.7890827133446;1079
Antony;92160;0.040113476928723;0.85090134014807;59855
Antraigues-sur-Volane;7530;0.076076966575532;0.78048702803123;498
Antrain;35560;-0.025850264404098;0.84583021537936;1387
Antran;86100;0.0094781154181863;0.81774491799755;1060
Antras;32360;0.0078491294793041;0.76322275336967;58
Antras;9800;0.016444876170212;0.74843109062216;58
Antrenas;48100;0.057004388889036;0.77810170122188;303
Antugnac;11190;0.038848113387473;0.74973044691801;266
Antully;71400;0.077002947686552;0.8186030550798;861
Anvéville;76560;0.012949365927672;0.86741893101901;247
Anville;16170;-0.0019344007116811;0.79985047284303;156
Anvin;62134;0.039337785488156;0.88043619611121;741
Any-Martin-Rieux;2500;0.073662594665536;0.8705993445718;505
Anzat-le-Luguet;63420;0.0530919389316;0.79119653088082;238
Anzeling;57320;0.11287432108797;0.85980735030745;379
Anzême;23000;0.032511608432767;0.80751538335541;535
Anzex;47700;0.0028749411735381;0.77293357081047;255
Anzin;59410;0.061193179260271;0.87916114116031;14052
Anzin-Saint-Aubin;62223;0.047851116706001;0.87813329413759;2470
Anzy-le-Duc;71110;0.070865218578896;0.80846559923236;434
Aoste;38490;0.097864487190551;0.79567623415045;1715
Aougny;51170;0.065042608007221;0.85839168045099;56
Aouste;8290;0.075359444398838;0.86919818894329;208
Aouste-sur-Sye;26400;0.088245781833944;0.78043849192037;1989
Aouze;88170;0.10247992012961;0.84430788592124;193
Apach;57480;0.1113229132397;0.86328830158927;813
Apchat;63420;0.05492453497909;0.79220493682757;207
Apchon;15400;0.047031770229504;0.7897130169956;242
Apinac;42550;0.069721049673191;0.79201585239019;304
Appelle;81700;0.034096944537205;0.76065326897092;71
Appenai-sous-Bellême;61130;0.0097253587164812;0.843760007106;222
Appenans;25250;0.11457116249889;0.82802784901953;412
Appenwihr;68280;0.12984279345384;0.83822828862676;443
Appeville;50500;-0.023421340815459;0.86083999102013;222
Appeville-Annebault;27290;0.011320397673843;0.86064611289278;779
Appietto;20167;0.15301689721279;0.73326132557892;1149
Appilly;60400;0.054410640596056;0.86538274462856;503
Appoigny;89380;0.061532561690498;0.83560547442719;2991
Apprieu;38140;0.096094916514735;0.79236492623007;2528
Appy;9250;0.030252367736863;0.74685063767326;9
Apremont;85220;-0.030383268346225;0.81594142530735;1119
Apremont;60300;0.043836859093519;0.85912378343465;813
Apremont;8250;0.087033760577093;0.85991400990911;118
Apremont;70100;0.096739726071292;0.82716971193729;362
Apremont;73190;0.10399252904974;0.7943527096677;890
Apremont;1100;0.098848658371391;0.80651663136762;329
Apremont-la-Forêt;55300;0.098436567482214;0.8526660838444;337
Apremont-sur-Allier;18150;0.053198611016826;0.81868547991554;87
Aprey;52250;0.091178912557152;0.83367108736942;188
Apt;84400;0.094208998988795;0.76577292985049;11172
Arabaux;9000;0.028686422774114;0.75022978962241;54
Arâches-la-Frasse;74300;0.11577350482966;0.80356897809409;1680
Aragnouet;65170;0.0036264103317528;0.74675363203055;260
Aragon;11600;0.040399521235743;0.7556790832659;453
Aramits;64570;-0.012668175647857;0.7526296306597;653
Aramon;30390;0.081710501032187;0.7660443725446;3773
Aranc;1110;0.096124011549644;0.80294360129111;275
Arancou;64270;-0.018340495508779;0.75824377397467;108
Arandas;1230;0.095799189120438;0.80104310295819;135
Arandon;38510;0.094776227333848;0.79781908014256;405
Araujuzon;64190;-0.014297161586739;0.75680866304226;182
Araules;43200;0.072852960404639;0.78697868292539;607
Araux;64190;-0.014108071947857;0.75667776867469;115
Arbanats;33640;-0.0068455650761836;0.77975006477858;821
Arbas;31160;0.015848567354413;0.7504188740598;186
Arbecey;70160|70120;0.10344461694497;0.83320569996893;234
Arbellara;20110;0.15692448690124;0.7275017070894;111
Arbent;1100;0.099110455428924;0.80800986579082;3610
Arbéost;65560;-0.0049499457376166;0.75043824855673;121
Arbérats-Sillègue;64120;-0.017351486945491;0.7564596557814;270
Arbignieu;1300;0.098625643597231;0.79812454471958;431
Arbigny;1190;0.08676710325057;0.81108361974196;332
Arbigny-sous-Varennes;52500;0.097980850685431;0.83530487011916;99
Arbin;73800;0.10586392402536;0.79425570402499;713
Arbis;33760;-0.0042760567506099;0.77979374062045;243
Arblade-le-Bas;32720;-0.0030446222457532;0.76283979080491;109
Arblade-le-Haut;32110;-0.0012120264583384;0.76361064278243;276
Arbois;39600;0.10075398368377;0.8185690997759;3698
Arbon;31160;0.013036632307048;0.75053032735143;76
Arbonne;64210;-0.027076845661972;0.75804010873031;1375
Arbonne-la-Forêt;77630;0.044757992419118;0.84497693856611;947
Arboras;34150;0.060815018707858;0.76290763483367;74
Arbori;20160;0.15355503884531;0.73549145667574;63
Arbot;52160;0.087460382338966;0.83515460125464;82
Arbouans;25400;0.11882299072536;0.82888598610179;1096
Arboucave;40320;-0.0075727916662487;0.76121080174514;194
Arbouet-Sussaute;64120;-0.017477535608241;0.75698323325171;227
Arbourse;58350;0.056325648995716;0.8246777921053;122
Arboussols;66320;0.043342339207415;0.74461078603845;95
Arbrissel;35130;-0.022742617566896;0.8365072207723;237
Arbus;64230;-0.0088042087461255;0.75633355510378;1031
Arbusigny;74930;0.10853038077729;0.80445134994226;684
Arc-en-Barrois;52210;0.08742160837797;0.83689511018506;898
Arc-et-Senans;25610;0.10102546798977;0.82094470604728;1364
Arc-lès-Gray;70100;0.097394222876314;0.82830901225162;2904
Arc-sous-Cicon;25520;0.11136654746969;0.82123072954835;532
Arc-sous-Montenot;25270;0.10476338934965;0.81878241897921;217
Arc-sur-Tille;21560;0.090587441123802;0.82631157485504;2332
Arcachon;33120;-0.020425203445931;0.7794349462426;11454
Arçais;79210;-0.012033067903927;0.80804382109473;572
Arcambal;46090;0.026407809661874;0.77589094462198;735
Arcangues;64200;-0.026577490474015;0.75812739383504;2733
Arçay;86200;0.00023755676503407;0.81977145042904;406
Arçay;18340;0.040860094140326;0.81938842128526;377
Arceau;21310;0.090601980318879;0.82704853810769;569
Arcenant;21700;0.08456605054389;0.82272882424055;451
Arcens;7310;0.075567903333163;0.78365765446703;452
Arces;17120;-0.015004979870212;0.7950653715754;561
Arces-Dilo;89320;0.062836703353931;0.83934335417518;593
Arcey;25750;0.11619529128968;0.82939018907516;1174
Arcey;21410;0.084226672274851;0.82510443051193;45
Archail;4420;0.11057146072624;0.77009743740759;7
Archamps;74160;0.10706624971137;0.80521248138181;1235
Archelange;39290;0.096254905917221;0.82286937256708;213
Arches;88380;0.1139312215337;0.83981366842368;1679
Arches;15200;0.040646779098199;0.7907359371703;173
Archettes;88380;0.11404756006145;0.83992518829433;1026
Archiac;17520;-0.0052456918572644;0.79449811826322;864
Archignac;24590;0.022897742539203;0.78559210810384;297
Archignat;3380;0.042309694333548;0.80933825054255;350
Archigny;86210;0.011388272911532;0.81459852632767;987
Archingeay;17380;-0.012333665970186;0.80167334003017;519
Archon;2360;0.071868780901422;0.86815589427166;83
Arcinges;42460;0.074738869608199;0.80520762111281;134
Arcins;33460;-0.012643932559559;0.78666835807937;304
Arcis-le-Ponsart;51170;0.06449961858928;0.85929349337512;261
Arcis-sur-Aube;10700;0.072300262932285;0.84711978455821;2841
Arcizac-Adour;65360;0.0017501812246128;0.75322591242777;471
Arcizac-ez-Angles;65100;0.00019392352658216;0.75210598661037;191
Arcizans-Avant;65400;-0.0018180571124874;0.75026367834728;298
Arcizans-Dessus;65400;-0.0027585977043814;0.75019583431851;96
Arcomps;18200;0.042309694333548;0.81467609089443;286
Arcon;42370;0.067849675503517;0.80305991485172;107
Arçon;25300;0.11127927900972;0.8193836275953;695
Arconcey;21320;0.077749564898155;0.82412025933108;188
Arçonnay;72610;0.0014932339030588;0.8446327249952;1837
Arconsat;63250;0.064805054037987;0.80090248805264;717
Arconville;10200;0.08244741435057;0.84057966013221;148
Arcueil;94110;0.040680709434963;0.85177885172725;18061
Arcy-Sainte-Restitue;2130;0.060461122049688;0.85961340560108;369
Arcy-sur-Cure;89270;0.065634083601761;0.83083009369754;449
Ardelles;28170;0.020483376870992;0.84730400872662;162
Ardelu;28700;0.033369718467289;0.84393943758443;78
Ardenais;18170;0.041383692416582;0.81419612268697;152
Ardenay-sur-Mérize;72370;0.0073885544941262;0.83767075585255;427
Ardengost;65240;0.007029802248306;0.74918256810277;16
Ardentes;36120;0.032031644386497;0.81581053093978;3323
Ardes;63420;0.05456093026651;0.79244735106581;547
Ardeuil-et-Montfauxelles;8400;0.082141983063051;0.85990435595015;76
Ardiège;31210;0.011233131294467;0.75172302404561;325
Ardilleux;79110;-0.00079025020623594;0.80455800954392;147
Ardillières;17290;-0.015523726199856;0.80388409663007;555
Ardin;79160;-0.0097399145563142;0.81113694954279;1149
Ardizas;32430;0.01750663064315;0.76299978020739;122
Ardoix;7290;0.082660733553884;0.788656141517;779
Ardon;45160;0.032705532333207;0.8338892002627;851
Ardon;39300;0.10271263047461;0.81633896867907;141
Ardouval;76680;0.022267486741885;0.86820915749346;136
Ardres;62610;0.034567223415606;0.8879459774901;4154
Aregno;20220;0.15524704495438;0.74315636718812;567
Areines;41100;0.01910650386207;0.83431104497936;532
Aren;64400;-0.011989434714239;0.75507308095984;180
Arengosse;40110;-0.013826882708339;0.76802243544425;676
Arenthon;74800;0.11054236569133;0.80470341813944;1144
Arès;33740;-0.019857973020283;0.78136453961041;4680
Aresches;39110;0.10313925223648;0.8185690997759;50
Aressy;64320;-0.0056383910846047;0.75533486969501;543
Arette;64570;-0.012522736883717;0.7521593164112;1094
Arfeuille-Châtain;23700;0.042561791659049;0.8040004767697;168
Arfeuilles;03640|03120;0.065071632301915;0.80557606944962;710
Arfons;81110;0.037810620728186;0.75799649946746;176
Argagnon;64300;-0.011897333033009;0.75849098190287;711
Arganchy;14400;-0.012939678679206;0.85931286787206;230
Argançon;10140;0.080348169298935;0.84218441442608;113
Argancy;57640;0.10825889647129;0.85863895495821;1103
Argein;9800;0.017341783052269;0.74928436743543;149
Argelès-Bagnères;65200;0.0034373212130192;0.75205265680954;135
Argelès-Gazost;65400;-0.0017259386564633;0.75059337769023;3241
Argelès-sur-Mer;66700;0.052742873414097;0.74258911387594;9069
Argeliers;11120;0.050789082731063;0.75595545280803;1237
Argelliers;34380;0.064082679914681;0.7626507063675;731
Argelos;40700;-0.010961644907875;0.76070173850277;173
Argelos;64450;-0.0060262378451855;0.7583843223012;217
Argelouse;40430;-0.011199201998001;0.77435410093591;55
Argences;14370;-0.0028555505519996;0.8574269503461;3241
Argens-Minervois;11200;0.04832137685905;0.75473852134792;330
Argent-sur-Sauldre;18410;0.042687838241205;0.8300931304449;2502
Argentan;61200;-0.00035391785422621;0.85073649047659;16596
Argentat;19400;0.033878777548468;0.78701743191924;3125
Argentenay;89160;0.071771816870607;0.83452915787264;83
Argenteuil;95100;0.039090523464509;0.85450832552846;93961
Argenteuil-sur-Armançon;89160;0.071703939552323;0.83351109796692;246
Argentières;77390;0.050095799481477;0.84918027229359;364
Argentine;73220;0.11018844822722;0.7940326642837;688
Argenton;47250;0.0015998909039732;0.77466435920291;268
Argenton-l'Église;79290;-0.0045717851852037;0.82109497491179;1479
Argenton-les-Vallées;79150;-0.0077473244250006;0.82004781997117;1038
Argenton-Notre-Dame;53290;-0.010292590182425;0.83393287610457;181
Argenton-sur-Creuse;36200;0.026504761209121;0.81309557136649;5146
Argentré;53210;-0.01118949810478;0.83922704061457;2325
Argentré-du-Plessis;35370;-0.020061582088594;0.83874707240711;3614
Argenvières;18140;0.052485924141986;0.82270944974362;435
Argenvilliers;28420|28480;0.016716379201562;0.84234926409754;333
Argers;51800;0.084759978605517;0.85642819835831;73
Arget;64410;-0.0091872212451495;0.75998421632607;83
Argiésans;90800;0.11910901422644;0.83087849665035;381
Argillières;70600;0.098354159291234;0.831930578439;78
Argilliers;30210;0.078534964393134;0.76750851193289;193
Argilly;21700;0.087484625427264;0.82151675304942;423
Argis;1230;0.095842839995181;0.80171208902402;390
Argiusta-Moriccio;20140;0.15746747215799;0.72981912329096;77
Arguves;80730|80470;0.038862723322767;0.87142838661915;543
Argol;29560;-0.075315810168852;0.84204379952052;746
Argonay;74370;0.10715350984896;0.80189151950247;1886
Argouges;50240;-0.024371585820725;0.84656225178399;540
Argoules;80120;0.032031644386497;0.878632703421;335
Argueil;76780;0.026451441811266;0.86466522245186;366
Arguel;80140;0.031512898056853;0.87034234952662;35
Arguel;25720;0.10477792854472;0.82377118549121;218
Arguenos;31160;0.012653637493078;0.74998737538418;57
Argut-Dessous;31440;0.012532441817236;0.74854747076181;33
Argy;36500;0.025156983235107;0.81925752691769;614
Arhansus;64120;-0.018044768114483;0.75504398592494;81
Aries-Espénan;65230;0.0092744876245254;0.75531063492908;63
Arifat;81360;0.040651631044812;0.76396451031227;158
Arignac;9400;0.027939807643104;0.74824686645375;583
Arinthod;39240;0.097142113067245;0.80971641941735;1214
Arith;73340;0.10620813759626;0.79783845463948;289
Arjuzanx;40110;-0.014961346680524;0.76818728511573;214
Arlanc;63220;0.065008661025701;0.79272372060793;2019
Arlay;39140;0.096502172102057;0.81609655444085;723
Arlebosc;7410;0.081172351077288;0.78601874651047;321
Arlempdes;43490;0.068436299151446;0.78304199820203;114
Arles;13200|13280;0.08081359831132;0.76233558783152;50513
Arles-sur-Tech;66150;0.045974886428527;0.74102803542396;2700
Arlet;43380;0.059685409803175;0.78745865113285;20
Arleuf;58430;0.070157383650666;0.82105622591793;800
Arleux;59151;0.05419732555393;0.87753215210054;2567
Arleux-en-Gohelle;62580;0.050086095588255;0.87902052625475;709
Arlos;31440;0.012207600662679;0.74859108002466;88
Armaillé;49420;-0.019668882341105;0.83278871552124;290
Armancourt;60880;0.048326228805661;0.86182416220098;527
Armancourt;80700;0.047346909571433;0.86706020322017;21
Armaucourt;54760;0.11001391130728;0.85200189146855;235
Armbouts-Cappel;59380;0.041044330792299;0.88969614037946;2677
Armeau;89500;0.058012807319362;0.83852889293479;533
Armendarits;64640;-0.020473689622527;0.75577602232958;357
Armenteule;65510|65240;0.0072382643035239;0.74728213634889;29
Armentières;59280;0.050270336401419;0.88466862487361;25273
Armentières-en-Brie;77440;0.052718646970556;0.85483316460243;1256
Armentières-sur-Avre;27820;0.014175948225843;0.849674754729;163
Armentières-sur-Ourcq;2210;0.059093934208636;0.85840140098897;105
Armentieux;32230;0.0015901868807141;0.75956729845742;76
Armes;58500;0.061939796471874;0.82831873278961;279
Armillac;47800;0.0067292218671012;0.77767020254625;141
Armissan;11110;0.054047035883476;0.75375921043607;1211
Armix;1510;0.097500882477971;0.80022378144884;15
Armous-et-Cau;32230;0.0030252316242147;0.76033329016595;90
Armoy;74200;0.1138293972339;0.80895042770882;940
Arnac;15150;0.039003255004539;0.7864114296132;173
Arnac-la-Poste;87160;0.023964348958753;0.80750080254845;979
Arnac-Pompadour;19230;0.024134029770894;0.79231645669822;1334
Arnac-sur-Dourdou;12360;0.051157539390254;0.76319858518276;30
Arnage;72230;0.0032094685362628;0.83652180157927;5565
Arnancourt;52110;0.085884739724777;0.84390062201155;128
Arnas;69400;0.082146835009661;0.80331204962793;3106
Arnaud-Guilhem;31360;0.01568857275044;0.75298835845853;167
Arnave;9400;0.028768837206879;0.74791723368983;168
Arnaville;54530;0.1052821315181;0.85539555764563;609
Arnay-le-Duc;21230;0.078365279419804;0.8226173043699;1829
Arnay-sous-Vitteaux;21350;0.078491330163148;0.82809569304831;146
Arnayon;26470;0.092793345777092;0.77647757243109;35
Arné;65670;0.0088430076742568;0.75374955647711;187
Arnéguy;64220;-0.022330510032963;0.75240659091841;286
Arnèke;59285;0.042096362646665;0.88717512551256;1549
Arnicourt;8300;0.075883038513903;0.86495124595295;139
Arnières-sur-Iton;27180;0.019314983602342;0.85513376891048;1500
Arnos;64370;-0.0092890257793042;0.75846674713694;68
Arnouville-lès-Gonesse;95400;0.042183631106636;0.85508043910965;12291
Arnouville-lès-Mantes;78790;0.030257219683475;0.85365990898419;742
Aroffe;88170;0.10297927947875;0.8447248037899;82
Aromas;39240;0.095629504147108;0.80794202176204;495
Aron;53440;-0.0097447488178711;0.84293103163767;1550
Aroue-Ithorots-Olhaïby;64120;-0.016003692326721;0.75605725214069;230
Aroz;70360;0.10474885015457;0.83101911155591;151
Arpaillargues-et-Aureillac;30700;0.076358154774752;0.76795938510545;785
Arpajon;91290;0.039274760116483;0.84806034647619;9053
Arpajon-sur-Cère;15130;0.042930248318239;0.78367223527399;5545
Arpavon;26110;0.091940068963832;0.77440743073674;61
Arpenans;70200;0.11178834225208;0.83105306685982;190
Arpheuilles;36700;0.022320822784498;0.8185690997759;253
Arpheuilles;18200;0.044714358189132;0.81651353888853;322
Arpheuilles-Saint-Priest;3420;0.046755433976894;0.80675418533684;307
Arphy;30120;0.062725195966851;0.76841511854698;173
Arquenay;53170;-0.009943524664921;0.83757381678887;508
Arques;62510;0.04005530766485;0.88550252718994;9331
Arques;11190;0.041427326646568;0.74966739657921;199
Arques;12290;0.048864366276993;0.77346686881876;123
Arques-la-Bataille;76880;0.019712516571091;0.87066718860058;2535
Arquettes-en-Val;11220;0.043642935193081;0.75233388662065;96
Arquèves;80560;0.043051459598541;0.87393968094807;143
Arquian;58310;0.052151414464314;0.82975863741197;615
Arracourt;54370;0.1139797077103;0.8503922769057;234
Arradon;56610;-0.049237674882794;0.83125666552515;4719
Arraincourt;57380;0.11400877777807;0.85476046030467;114
Arrancourt;91690;0.037728208376015;0.84372125811213;133
Arrancy;2860;0.065522576214681;0.86380222510062;50
Arrancy-sur-Crusne;55230;0.098771093804641;0.86246418638994;322
Arrans;21500;0.075417617823899;0.83245415590931;82
Arras;62000;0.048297133770751;0.87771151599994;40590
Arras-en-Lavedan;65400;-0.0021622709434544;0.75035582372099;456
Arras-sur-Rhône;7370;0.083935796827166;0.78789494349842;415
Arrast-Larrebieu;64130;-0.014806204023162;0.75564512796201;105
Arraute-Charritte;64120;-0.019348911858511;0.75751167099102;322
Arraye-et-Han;54760;0.10978120928465;0.85240429510925;332
Arrayou-Lahitte;65100;0.0007126702951022;0.75209147238243;93
Arre;30120;0.061421050142229;0.76736796360636;283
Arreau;65240;0.0063074281250004;0.74879960553801;823
Arrelles;10340;0.074612827187233;0.83860645750155;73
Arrembécourt;10330;0.080231805804055;0.84722158389088;41
Arrènes;23210;0.027387130976696;0.80409741583339;244
Arrens-Marsous;65400;-0.0036942860895902;0.74971586611105;697
Arrentès-de-Corcieux;88430;0.11983138834974;0.84023544656133;185
Arrentières;10200;0.082781940672997;0.84233954355956;231
Arrest;80820;0.028230699735546;0.87490933790097;820
Arreux;8090;0.081177203023898;0.8696345478879;320
Arriance;57580;0.11336883681288;0.8555264520132;226
Arricau-Bordes;64350;-0.0023513423771337;0.7591018444779;105
Arrien;64420;-0.0027828228475512;0.75588754220023;135
Arrien-en-Bethmale;9800;0.018185353891714;0.74868322539836;110
Arrigas;30770;0.060747162195521;0.76775578644012;194
Arrigny;51290;0.082161374204738;0.8486518345543;256
Arro;20151;0.15386047013283;0.7346333195935;51
Arrodets;65130;0.0049450937910056;0.75100064159993;19
Arrodets-ez-Angles;65100;0.00073691292827025;0.75176663330846;81
Arromanches-les-Bains;14117;-0.010874378528499;0.86112122083124;552
Arronnes;3250;0.062284010042767;0.803908331396;332
Arronville;95810;0.036913713846127;0.85834807118814;610
Arros-de-Nay;64800;-0.0050275253886759;0.75399676440529;728
Arrosès;64350;-0.0018956195986413;0.7599454673322;141
Arrou;28290;0.019625250191714;0.83947910881173;1770
Arrouède;32140;0.010229566891347;0.75678449485536;78
Arrout;9800;0.01794779576129;0.74953164194264;60
Arry;80120;0.030029367526867;0.87751763787259;164
Arry;57680;0.10575724777895;0.85517737817333;407
Ars;16130;-0.0066855886774133;0.79662645002739;746
Ars;23480;0.036550109133547;0.80274965658473;247
Ars-en-Ré;17590;-0.026446589864653;0.80647302210477;1294
Ars-Laquenexy;57530;0.10945153490884;0.85682088146103;741
Ars-les-Favets;63700;0.048141992153687;0.80625484263245;218
Ars-sur-Formans;1480;0.084149116030481;0.80276417081267;1102
Ars-sur-Moselle;57130;0.10602389678309;0.85654943876694;5001
Arsac;33460;-0.011974895519163;0.78534969386562;2818
Arsac-en-Velay;43700;0.068824142791134;0.78521879949802;915
Arsague;40330;-0.013880219791249;0.76064361501198;277
Arsans;70100;0.098237795796354;0.82668974372983;46
Arsonval;10200;0.081133568793914;0.8424268286643;331
Arsure-Arsurette;39250;0.10611116524306;0.81542270810604;87
Arsy;60190;0.046740894781818;0.86221691188274;898
Art-sur-Meurthe;54510;0.10934487530718;0.84919478652154;1109
Artagnan;65500;0.0013332395591601;0.75751653126;433
Artaise-le-Vivier;8390;0.085433866552227;0.86533427509673;55
Artaix;71110;0.070002237872413;0.80713721448064;336
Artalens-Souin;65400;-0.00076115556143831;0.75004070518501;110
Artannes-sur-Indre;37260;0.010476827874696;0.82506075467006;2184
Artannes-sur-Thouet;49260;-0.0016095775022526;0.82385361032695;399
Artas;38440;0.09013171600464;0.79476476726736;1349
Artassenx;40090;-0.0069619264904685;0.76521539707628;244
Artemare;1510;0.099386800003911;0.80065528012446;970
Artemps;2480;0.055685708030526;0.86855823133334;338
Artenay;45410;0.032817041800881;0.83918343135172;1945
Arthaz-Pont-Notre-Dame;74380;0.10965515854131;0.80560523106357;1169
Arthel;58700;0.059491485902736;0.82459536726956;70
Arthémonay;26260;0.088240929887333;0.78788528953948;370
Arthenac;17520;-0.0054977871021702;0.7943768778546;312
Arthenas;39270;0.096511859350522;0.8130567557936;141
Arthès;81160;0.038542682099956;0.76715950467205;2164
Arthez-d'Armagnac;40190;-0.0044699801309003;0.76615103214625;102
Arthez-d'Asson;64800;-0.0044408856161397;0.7520672376165;508
Arthez-de-Béarn;64370;-0.010728923119602;0.75864131734639;1579
Arthezé;72270;-0.0020750044340413;0.83404918966518;292
Arthies;95420;0.031270487979817;0.85687907153086;258
Arthon;36330;0.029670598116141;0.81497662862344;995
Arthon-en-Retz;44320;-0.033864240433987;0.82231670006186;2670
Arthonnay;89740;0.073827427692256;0.83658964560804;179
Arthun;42130;0.070370694531603;0.79891477119403;461
Artigat;9130;0.025142446120625;0.75286232435994;516
Artignosc-sur-Verdon;83630;0.10630025800284;0.76276222623815;221
Artigue;31110;0.0108258933922;0.74757788038793;34
Artigueloutan;64420;-0.0042905951654631;0.7553009143911;722
Artiguelouve;64230;-0.0082757751680159;0.75605239187171;1252
Artiguemy;65130;0.0043002993187593;0.7526877541505;89
Artigues;83560;0.10141816773726;0.76086172790525;110
Artigues;11140;0.038605707471629;0.74705423633859;82
Artigues;65100;8.241444901959E-005;0.75176663330846;29
Artigues;9460;0.036104071262852;0.74556100191539;38
Artigues-près-Bordeaux;33370;-0.0085181842047537;0.78297894786322;5984
Artins;41800;0.012910584684595;0.83330257245357;282
Artix;64170;-0.0099386727183101;0.7574486206522;3122
Artix;9120;0.027328940906879;0.75168906874172;91
Artolsheim;67390;0.13220868750962;0.8413941213726;728
Artonges;2330;0.062027064931844;0.85398960832715;145
Artonne;63460;0.054900308535549;0.80293874102211;762
Artres;59269;0.061770115659732;0.87780852164265;1071
Artzenheim;68320;0.13162206802288;0.83976999258181;618
Arudy;64260;-0.0074564307721123;0.75235326111757;2234
Arue;40120;-0.0061522854676384;0.76899209239715;286
Arvert;17530;-0.019668882341105;0.79832814338492;2887
Arveyres;33500;-0.004920851222856;0.78337163096595;1624
Arvieu;12120;0.046430611547688;0.77125611221886;880
Arvieux;5350;0.11761580477037;0.7813354445755;355
Arvigna;9100;0.030228124648566;0.75157754887108;156
Arvillard;73110;0.10683839131298;0.79311154344166;704
Arville;77890;0.044501043147007;0.84102081276678;121
Arville;41170;0.016546698389421;0.83884887173977;108
Arvillers;80910;0.046178497577431;0.86824797306635;652
Arx;40310;0.0013089969910106;0.76982592813446;57
Arzacq-Arraziguet;64410;-0.0071849443855194;0.75986304249648;889
Arzal;56190;-0.041427326646568;0.82931741819838;917
Arzano;29300;-0.060063570355588;0.83602725256484;1324
Arzay;38260;0.090243227552909;0.79283038020959;169
Arzembouy;58700;0.058769111779432;0.82458564673158;92
Arzenc-d'Apcher;48310;0.05408581816685;0.78288680248951;58
Arzenc-de-Randon;48170;0.063394231966951;0.77951251080934;195
Arzens;11290;0.038576629081476;0.75398225017735;1003
Arzillières-Neuville;51290;0.080086372241402;0.84901056235313;312
Arzon;56640;-0.050498186477431;0.82992342050443;2056
Arzviller;57400|57405;0.12502374520469;0.85029533784202;516
Asasp-Arros;64660;-0.010748313220992;0.75266351938457;547
Ascain;64310;-0.028313114168311;0.75651784585123;3097
Ascarat;64220;-0.021918421224381;0.75348290747296;275
Aschbach;67250;0.13932090887203;0.85407203316289;590
Aschères-le-Marché;45170;0.035066578603563;0.83962944425527;1052
Asco;20276;0.15765171297115;0.74093102978126;134
Ascou;9110;0.032526147627844;0.74564828702011;102
Ascoux;45300;0.039318394346469;0.83997365782616;787
Ascros;6260;0.12242030550206;0.76653892155903;145
Asfeld;8190;0.071878468149886;0.86339496119093;976
Aslonnes;86340;0.0058323144648951;0.81057941676859;890
Asnan;58420;0.062007673790158;0.82568619805206;137
Asnans-Beauvoisin;39120;0.094422309869732;0.8193836275953;540
Asnelles;14960;-0.010152004405193;0.8610436562645;571
Asnières;27260;0.0069279795089484;0.85861958046128;216
Asnières-en-Bessin;14710;-0.016347923582668;0.86161570326664;55
Asnières-en-Montagne;21500;0.07463221832892;0.83285655955002;187
Asnières-en-Poitou;79170;-0.003476119881076;0.80465980887659;187
Asnières-la-Giraud;17400;-0.0090999548657735;0.80092672281856;875
Asnières-lès-Dijon;21380;0.088032470953007;0.8270436778387;798
Asnières-sous-Bois;89660;0.063670589025505;0.82871141589233;166
Asnières-sur-Blour;86430;0.013991728218626;0.80572154462418;191
Asnières-sur-Nouère;16290;0.00080964076275585;0.79781908014256;1013
Asnières-sur-Oise;95270;0.041131599252271;0.85750451491286;2479
Asnières-sur-Saône;1570;0.08521570372468;0.80952733497994;69
Asnières-sur-Seine;92600;0.039817749534426;0.85368414375011;75837
Asnières-sur-Vègre;72430;-0.0040869850568563;0.83579455886458;375
Asnois;86250;0.0072237256285964;0.80481007774109;151
Asnois;58190;0.062812464426822;0.82725213677302;170
Aspach;57790;0.1214894058654;0.84919485310058;36
Aspach;68130;0.12624064337529;0.83149907976337;981
Aspach-le-Bas;68700;0.12485406855374;0.83359831649262;1080
Aspach-le-Haut;68700;0.12443712571796;0.83382135623392;1123
Aspères;30250;0.070496761919704;0.76459967423226;347
Asperjoc;7600;0.076086653823996;0.77991491445006;361
Aspet;31160;0.014025657515092;0.75075336709271;923
Aspin-Aure;65240;0.0059389714658095;0.74931832273932;42
Aspin-en-Lavedan;65100;-0.0008338833959239;0.75182968364728;223
Aspiran;34800;0.060209008079432;0.76038175969779;1167
Aspremont;6790;0.12641517197286;0.76419241032255;1853
Aspremont;5140;0.099958880295574;0.77652610854196;238
Aspres-lès-Corps;5800;0.10436098570893;0.78192207238463;121
Aspres-sur-Buëch;5140;0.10037582313136;0.77705447970223;762
Aspret-Sarrat;31800;0.012551831918626;0.75167455451378;97
Asprières;12700;0.037461555210682;0.77745688334294;707
Asque;65130;0.0044651281842893;0.75124784952811;107
Asques;33240;-0.007165553763981;0.78454488658419;474
Asques;82120;0.01668728520695;0.76812909504591;134
Asquins;89450;0.065478941984697;0.82874537119623;280
Assac;81340;0.042571495552271;0.76750851193289;154
Assainvillers;80500;0.045567630841205;0.86605179727341;157
Assais-les-Jumeaux;79600;-0.00098902572819302;0.81662985244914;794
Assas;34820;0.068067842492254;0.76274764543119;1305
Assat;64510;-0.0052117448757443;0.75486941571549;1479
Assay;37120;0.0050856972532914;0.82159917788516;174
Assé-le-Bérenger;53600;-0.0055850534815461;0.84047786079955;329
Assé-le-Boisne;72130;-0.00013575171073063;0.84339641903817;791
Assé-le-Riboul;72170;0.00149806842469;0.84115656740336;420
Assenay;10320;0.070952487038866;0.8409287339721;95
Assencières;10220;0.073240808205516;0.8440072816132;145
Assenoncourt;57810|57260;0.11860489447684;0.85123583318097;119
Assérac;44410;-0.041674588670213;0.82781452981622;1360
Assevent;59600;0.070050724049009;0.87766790673709;1875
Assevillers;80200;0.04948008495983;0.87087078726591;228
Assier;46320;0.032763703677673;0.77973555055063;535
Assieu;38150;0.084978141433066;0.79251526167361;889
Assignan;34360;0.050415774125261;0.75743896669324;168
Assigny;76630;0.022592309171091;0.87239797699302;306
Assigny;18260;0.048083822889814;0.82777085397435;167
Assis-sur-Serre;2270;0.062114329230625;0.8672056118157;266
Asson;64800;-0.0044602934025837;0.75294960946468;1771
Asswiller;67320;0.12601762027876;0.85311695701695;230
Astaffort;47220;0.011407664053219;0.76905993642593;1880
Astaillac;19120;0.031958915121603;0.7845739816191;220
Asté;65200;0.0029622078129883;0.75120910053426;484
Aste-Béon;64260;-0.0072237256285964;0.75089884226727;231
Astet;7330;0.070865218578896;0.77988581941515;51
Astillé;53230;-0.014840151004682;0.8371326641543;547
Astis;64450;-0.0057062491573881;0.75818072363587;266
Aston;9310;0.029219727024186;0.74656461417219;241
Astugue;65200;0.0012314345048567;0.75210598661037;219
Athée;53400;-0.016604870774185;0.8357896985956;488
Athée;21130;0.093767813064709;0.82433837222438;600
Athée-sur-Cher;37270;0.016008544273332;0.82589951725537;2019
Athesans-Étroitefontaine;70110;0.11361123440635;0.83073308805484;564
Athie;21500;0.074239518581432;0.83019492977756;92
Athie;89440;0.069643489267633;0.82970044734216;139
Athienville;54370;0.11327186445969;0.85025166200014;172
Athies;62223;0.049489788853051;0.87793941601022;930
Athies;80200;0.052035055130624;0.8701290303233;632
Athies-sous-Laon;2840;0.064281455761731;0.86522761549506;2132
Athis;51150;0.072043317821363;0.85548770301935;758
Athis-de-l'Orne;61430;-0.0086878650168947;0.85193398086075;2421
Athis-Mons;91200;0.041403083558269;0.85001896829989;29427
Athos-Aspis;64390;-0.016997569481376;0.7577347107323;203
Athose;25580;0.11012057090894;0.82166222822398;120
Attainville;95570;0.040961901795373;0.85619064438907;1732
Attancourt;52130;0.086030189932187;0.84694042065879;241
Attenschwiller;68220;0.13026458823624;0.83019979004654;836
Attiches;59551;0.053382831024043;0.88179853616684;2229
Attichy;60350;0.053213150211903;0.86238655524416;1852
Attignat;1340;0.090078377881433;0.80791292672714;1924
Attignat-Oncin;73610;0.10083640019713;0.79427507852194;418
Attignéville;88300;0.10138908934711;0.84445815478576;254
Attigny;8130;0.079882740286552;0.8635646711314;1200
Attigny;88260;0.105354860783;0.83888762073364;278
Attilloncourt;57170;0.11130352209801;0.8514782474192;94
Attilly;2490;0.054682141546812;0.87018722039312;397
Attin;62170;0.030489923786694;0.88121676862671;682
Atton;54700;0.10624691987963;0.85331083514432;637
Attray;45170;0.036865227669532;0.83988637272144;195
Attricourt;70100;0.094107174688992;0.82875502515518;41
Atur;24750;0.013056040093491;0.78785133423557;1491
Aubagnan;40700;-0.0085230184663108;0.76217559842904;233
Aubagne;13400;0.097180911995377;0.75560151869916;42638
Aubaine;21360;0.082360154212977;0.82269000866766;58
Aubais;30250;0.072416626427165;0.76364459808633;1996
Aubarède;65350;0.0041742516963064;0.75524758459029;223
Aubas;24290;0.020813051246808;0.78679925244694;488
Aubazat;43380;0.060005396930528;0.78782223920066;172
Aubazines;19190;0.029190631989276;0.7884379620447;732
Aube;61270;0.0095508259577293;0.85066378617883;1540
Aube;57580;0.11063933804453;0.85569130168468;203
Aubéguimont;76390;0.029200335882499;0.86929519458599;176
Aubenas;7200;0.076590856797376;0.7787222843349;11018
Aubenas-les-Alpes;4110;0.099168628853985;0.76674252022436;62
Aubenasson;26340;0.089690530080556;0.77992949525702;30
Aubencheul-au-Bac;59265;0.055166940894936;0.87713460872882;480
Aubencheul-aux-Bois;2420;0.056985001908539;0.87314945447361;272
Aubenton;2500;0.073347459484796;0.86984786709121;713
Aubepierre-Ozouer-le-Repos;77720;0.050391531036963;0.84876814811491;867
Aubepierre-sur-Aube;52210;0.086151388728923;0.83629876183797;215
Auberchicourt;59165;0.056442012490596;0.87846299348053;4556
Aubercourt;80110;0.044496191200395;0.86966364292281;43
Aubergenville;78410;0.032380709904001;0.85450832552846;11667
Auberive;52160;0.08838153647051;0.83404918966518;205
Aubérive;51600;0.077075676951446;0.85878929040175;182
Auberives-en-Royans;38680;0.092565470733945;0.78650836867687;327
Auberives-sur-Varèze;38550;0.084076386765587;0.79281093913363;1159
Aubermesnil-aux-Érables;76340;0.027358035941787;0.86962968761891;203
Aubermesnil-Beaumais;76550;0.019528296563874;0.86995452669288;457
Aubers;59249;0.049324943342764;0.88306873084874;1584
Aubertin;64290;-0.0084309178253779;0.75529126043216;632
Auberville;14640;-0.00055752796283308;0.86065097316176;213
Auberville-la-Campagne;76170;0.010501069922697;0.86451009331838;555
Auberville-la-Manuel;76450;0.010321685217334;0.86965878265382;103
Auberville-la-Renault;76110;0.0064286238008424;0.86710867275202;347
Aubervilliers;93300;0.041592172156855;0.8536938642881;63136
Aubeterre;10150;0.071931806273093;0.8452532415292;167
Aubeterre-sur-Dronne;16390;0.0029719117062102;0.79015902989915;365
Aubeville;16250;-0.0003733084757647;0.79407147985659;142
Aubevoye;27940;0.023246808056706;0.85815412648177;3819
Aubiac;33430;-0.0042954473721483;0.77619640919902;259
Aubiac;47310;0.0098029388876892;0.77043199701954;904
Aubiat;63260;0.055297843584892;0.80244905227669;718
Aubie-et-Espessas;33240;-0.0071170686276819;0.78574237696834;950
Aubière;63170;0.054318520189476;0.79851722782231;9898
Aubiet;32270;0.013720225187276;0.76177319478832;1001
Aubignan;84810;0.087727039665489;0.76966593873196;3837
Aubignas;7400;0.080871771736381;0.77822294163051;337
Aubigné;35250;-0.028511890015361;0.84288249552682;240
Aubigné;79110;-0.0024579996381224;0.80385500159516;214
Aubigné-Racan;72800;0.0046736079245612;0.83235721684563;2100
Aubigné-sur-Layon;49540;-0.0080382185980376;0.82404269476434;334
Aubignosc;4200;0.10418162180952;0.77021867781622;428
Aubigny;80800;0.043327800012339;0.87095807237065;536
Aubigny;85430;-0.025350907135547;0.81327493526591;2329
Aubigny;79390;-0.0020410578426327;0.81576692167693;182
Aubigny;14700;-0.0037330673326672;0.85380052388974;316
Aubigny;3460;0.05521057512492;0.81478275049608;103
Aubigny-au-Bac;59265;0.055254209354906;0.87725098886845;1048
Aubigny-aux-Kaisnes;2590;0.05439610140098;0.86873280154281;271
Aubigny-en-Artois;62690;0.045218565323701;0.87878297228552;1360
Aubigny-en-Laonnois;2820;0.06618676026817;0.86389923074333;114
Aubigny-en-Plaine;21170;0.090383809168952;0.8226221646389;319
Aubigny-la-Ronce;21340;0.080430585812295;0.82004295970219;138
Aubigny-les-Pothées;8150;0.077424742468951;0.8687667568467;319
Aubigny-lès-Sombernon;21540;0.081022057245645;0.82560377321632;120
Aubigny-sur-Nère;18700;0.042581182800736;0.82884231025992;5907
Aubilly;51170;0.06734546836895;0.85892983872826;53
Aubin;64230;-0.0073400870428815;0.75823891370569;183
Aubin;12110;0.039221421993276;0.77717572011086;4360
Aubin-Saint-Vaast;62140;0.034446010054709;0.8795053547312;756
Aubinges;18220;0.045082831493081;0.82417358913192;333
Auboncourt-Vauzelles;8270;0.078404061703178;0.86487368138619;85
Aubonne;25520;0.11044055803629;0.82092533155035;256
Aubord;30620;0.075267323992255;0.76371244211509;1910
Auboué;54580;0.10437068960216;0.85889588342437;2807
Aubous;64330;-0.0023901236202108;0.76054174910027;53
Aubres;26110;0.090185037483092;0.77452381087637;349
Aubréville;55120;0.088725750041403;0.85773234834412;383
Aubrives;8320;0.083106763102203;0.87446811868736;1026
Aubrometz;62390;0.038009396575236;0.87796365077615;133
Aubry-du-Hainaut;59494;0.060432027014779;0.8791271858564;1435
Aubry-en-Exmes;61160;0.0013235355359009;0.85177399145825;243
Aubry-le-Panthou;61120;0.0040481863887994;0.85267087753438;93
Aubure;68150;0.12603215947383;0.84120989720419;400
Aubussargues;30190;0.075519417156566;0.76808062551408;238
Aubusson;61100;-0.0096332403904943;0.85146859346025;335
Aubusson;23200;0.037859106904782;0.80206122944293;4662
Aubusson-d'Auvergne;63120;0.063151826051104;0.79858993212007;220
Aubvillers;80110;0.043337503905562;0.86769044029214;96
Auby;59950;0.053218002158513;0.87991747890988;7958
Aucaleuc;22100;-0.037122176941643;0.84571383523973;629
Aucamville;31140;0.024987302422967;0.76208345305532;5533
Aucamville;82600;0.02121545488752;0.76453662389344;790
Aucazein;9800;0.017036350724454;0.74939102703708;57
Aucelon;26340;0.093253922842865;0.77884831843349;39
Aucey-la-Plaine;50170;-0.025782387085815;0.84698402992164;362
Auch;32810|32000;0.010263513872867;0.76174896002241;21838
Auchel;62260;0.043158119200199;0.88152702689371;11392
Auchonvillers;80560;0.045882770183134;0.87408515612261;147
Auchy-au-Bois;62190;0.041354597381673;0.88233669444412;414
Auchy-la-Montagne;60360;0.036971887271189;0.86523240918502;439
Auchy-lès-Hesdin;62770;0.03669069491078;0.87962652856079;1759
Auchy-les-Mines;62138;0.048558934989474;0.88161431199843;4459
Auchy-lez-Orchies;59310;0.055908706159929;0.88101310338234;1156
Aucun;65400;-0.0033306642121048;0.7500116101501;205
Audaux;64190;-0.013773562270186;0.75676019351041;220
Audelange;39700;0.09752512556627;0.82268035470872;206
Audeloncourt;52240;0.096371269412101;0.83966333298014;98
Audembert;62250;0.029534845560169;0.88769384271389;357
Audenge;33980;-0.017690848569772;0.77984707042128;3948
Auderville;50440;-0.033680001701418;0.86765162471925;283
Audes;3190;0.044651332817461;0.81084120550374;451
Audeux;25170;0.1024508250947;0.82488139077063;331
Audeville;45300;0.039080836216045;0.84261105283271;161
Audierne;29770;-0.079257338516439;0.83814100352203;2471
Audignicourt;2300;0.054711219936963;0.86354529663445;98
Audignies;59570;0.06650674739552;0.87768242096504;260
Audignon;40500;-0.01055439036085;0.76312095403698;328
Audigny;2120;0.063680276273971;0.87040539986543;207
Audincourt;25400;0.11940476658787;0.82864357186357;15539
Audincthun;62560;0.037243388221943;0.88291846198424;574
Audinghen;62179;0.028133729462948;0.88753385331141;548
Audon;40400;-0.014311699741518;0.76448329409263;275
Audouville-la-Hubert;50480;-0.021603300607803;0.86233322544335;83
Audrehem;62890;0.034751443422823;0.88629761393338;357
Audressein;9800;0.017850844214043;0.74926499293849;107
Audresselles;62164;0.027804071731888;0.88704423114499;681
Audrieu;14250;-0.010370170353633;0.8588280393956;839
Audrix;24260;0.016536994496199;0.78331344089614;238
Audruicq;62370;0.036317386304977;0.88799444702193;4555
Audun-le-Roman;54560;0.10291625410708;0.86165451883953;2059
Audun-le-Tiche;57390;0.10393435562468;0.86338044696299;5757
Auenheim;67480;0.13976209479611;0.85193398086075;731
Auffargis;78610;0.03293338657041;0.8500141080309;1859
Auffay;76720;0.019242254337447;0.86775828432092;1872
Aufferville;77570;0.045553091646128;0.84149598728429;449
Auffreville-Brasseuil;78930;0.029869371882596;0.85444534176869;586
Auflance;8370;0.092371550994695;0.86604693700443;91
Auga;64450;-0.0066322510743547;0.75884005574274;113
Augan;56800;-0.039725629127845;0.8363472313698;1272
Auge;8380;0.074486776443889;0.87025506442189;69
Auge;23170;0.040549810906196;0.80706451018286;109
Augé;79400;-0.0049935789273045;0.81053088065772;794
Auge-Saint-Médard;16170;-0.00149806842469;0.80018010560695;310
Augea;39190;0.094398066781435;0.81251380382636;272
Auger-Saint-Vincent;60800;0.049034047089134;0.85903163806095;439
Augerans;39380;0.097433005159688;0.82061986697331;137
Augères;23210;0.030213587534084;0.80438829960344;146
Augerolles;63930;0.063166381890937;0.79803725961485;889
Augers-en-Brie;77560;0.058618822108978;0.84963114546615;260
Augerville-la-Rivière;45330;0.042532696624139;0.84216011308113;197
Augicourt;70500;0.10291140216047;0.83382135623392;142
Augignac;24300;0.012222156502512;0.79568109441944;791
Augirein;9800;0.016023100113165;0.74926499293849;73
Augisey;39270;0.095867058116344;0.81248470879145;206
Augnat;63340;0.055530566413462;0.79260248019929;133
Augnax;32120;0.013492371990371;0.763116093768;56
Augne;87120;0.029772401609998;0.79909413509346;123
Augny;57176|57685;0.10683839131298;0.8562439741899;1738
Auguaise;61270;0.009662334385106;0.84999959380296;119
Augy;2220;0.061343473091912;0.86112122083124;70
Augy;89290;0.062996680272851;0.83369532213533;1066
Augy-sur-Aubois;18600;0.04964976577197;0.8165474276134;294
Aujac;17770;-0.0068940507326312;0.80014621688209;325
Aujac;30450;0.070079819083917;0.77402440159296;166
Aujan-Mournède;32300;0.0087799833428816;0.75715773688213;107
Aujargues;30250;0.071931806273093;0.76425546066137;673
Aujeurres;52190;0.090490468770609;0.83325896319072;56
Aujols;46090;0.027052602573675;0.77507162311261;243
Aulan;26570;0.094727741157251;0.77184274002797;5
Aulas;30120;0.062623392472994;0.76800306094732;391
Aulhat-Saint-Privat;63500;0.057809179525702;0.79541444541529;296
Aullène;20116;0.15848559864273;0.72906278554137;138
Aulnat;63510;0.055220279018143;0.79927835926186;4488
Aulnay;17470;-0.006045628466724;0.80322476452319;1507
Aulnay;86330;0.0016095775022526;0.81864180407365;133
Aulnay;10240;0.076906000300495;0.84600471900979;118
Aulnay-l'Aître;51240;0.079606404033944;0.85212792556712;122
Aulnay-la-Rivière;45390;0.041538838194836;0.84116628794134;492
Aulnay-sous-Bois;93600;0.043468402434328;0.85413987719165;80021
Aulnay-sur-Iton;27180;0.01854412330244;0.85514828313841;590
Aulnay-sur-Marne;51150;0.073376554519705;0.85535674207274;214
Aulnay-sur-Mauldre;78126;0.032128595933744;0.85400412255509;1105
Aulnois;88300;0.10094790342302;0.8422377442269;123
Aulnois-en-Perthois;55170;0.089545096517902;0.8488069636878;421
Aulnois-sous-Laon;2000;0.062856094495618;0.86593541713378;1218
Aulnois-sur-Seille;57590;0.11022239520874;0.85294238680751;249
Aulnoy;77120;0.054037331990254;0.8524479043721;332
Aulnoy-lez-Valenciennes;59300;0.061571339812682;0.87846299348053;8002
Aulnoy-sur-Aube;52160;0.087814308125459;0.83484913667762;47
Aulnoye-Aymeries;59620;0.067107910238524;0.87614557727899;9203
Aulon;31420;0.014326238936594;0.75383191473383;347
Aulon;23210;0.029520306365093;0.80425740523587;176
Aulon;65440|65240;0.0052068929291333;0.74792209395883;84
Aulos;9310;0.029243968031888;0.74688452639813;60
Ault;80460;0.025273344649392;0.87442450942451;2070
Aulus-les-Bains;9140;0.023368021417604;0.74684577740428;189
Aulx-lès-Cromary;70190;0.10663476768051;0.82682549836639;138
Aumagne;17770;-0.0070394889766226;0.80068430858034;610
Aumale;76390;0.030557801104977;0.86870370650788;2577
Aumâtre;80140;0.030950498771872;0.87124409587172;196
Aumelas;34230;0.062822147514098;0.76105081234264;378
Auménancourt;51110;0.070870070525506;0.86182416220098;696
Aumerval;62550;0.041883051765729;0.88151244608673;191
Aumes;34530;0.060436878961391;0.75864131734639;310
Aumessas;30770;0.061173792279772;0.76779460201299;225
Aumetz;57710;0.1037743662222;0.8625368906877;2225
Aumeville-Lestre;50630;-0.02304805093501;0.86465064164489;139
Aumont;80640;0.033665464586937;0.87065267437264;116
Aumont;39800;0.098262038884651;0.81869520045353;405
Aumont-Aubrac;48130;0.057358310514339;0.78055487206;1031
Aumont-en-Halatte;60300;0.044564068518679;0.85922558276732;482
Aumontzey;88640;0.118275153522;0.84066694523694;442
Aumur;39410;0.093365409423999;0.821347109688;343
Aunac;16460;0.004193642317845;0.80142606552295;297
Aunat;11140;0.036559796382013;0.74690882774307;52
Aunay-en-Bazois;58110;0.064557792014341;0.82234579509677;292
Aunay-les-Bois;61500;0.004969336359155;0.84718283489701;144
Aunay-sous-Auneau;28700;0.031624388799175;0.84548600180848;1328
Aunay-sous-Crécy;28500;0.022795936964751;0.84946629579467;644
Aunay-sur-Odon;14260;-0.011039207394028;0.85556526758609;2902
Auneau;28700;0.030989297700002;0.84582535511038;3880
Auneuil;60390;0.034833857855588;0.86167875360546;2758
Aunou-le-Faucon;61200;0.00075630354980874;0.85049407623837;243
Aunou-sur-Orne;61500;0.0040191092990188;0.84842393454402;255
Auppegard;76730;0.01798659468942;0.86967329688177;561
Aups;83630;0.10863704037895;0.76146293652134;1903
Auquainville;14140;0.004232423560922;0.85617613016113;258
Auquemesnil;76630;0.023285606984839;0.87170954985124;245
Auradé;32600;0.018461708869675;0.76038661996677;388
Auradou;47140;0.014238971516921;0.77379170789273;258
Auragne;31190;0.026325376503758;0.75730807232567;310
Auray;56400;-0.05215624976617;0.83199842246776;10911
Aure;8400;0.080905718717901;0.86001101555182;46
Aurec-sur-Loire;43110;0.073332920289719;0.7918558629877;4895
Aureil;87220;0.024318247697516;0.79947230396824;777
Aureilhan;40200;-0.020992435952171;0.77175066123329;640
Aureilhan;65800;0.0016968440116656;0.75476275611382;7447
Aureille;13930;0.086355020683773;0.76285430503285;1357
Aurel;26340;0.092444280259589;0.78007490385254;205
Aurel;84390;0.094737445050472;0.77020895727824;156
Aurelle-Verlac;12130;0.052505315283673;0.77674908170422;209
Aurensan;32400;-0.0035245875923952;0.76130294711884;129
Aurensan;65390;0.0015126245245973;0.75582455844045;660
Aureville;31320;0.02538483747231;0.75890796635054;540
Auriac;64450;-0.0053668875331063;0.75835529384532;209
Auriac;11330;0.043502332771092;0.74928922770442;35
Auriac;19220;0.037524580582353;0.78895181897703;215
Auriac-du-Périgord;24290;0.019848269127063;0.7872501256195;398
Auriac-l'Église;15500;0.054590025301419;0.79000876103466;209
Auriac-Lagast;12120;0.045053736458171;0.77049012051033;280
Auriac-sur-Dropt;47120;0.0043099857870016;0.7792846773781;186
Auriac-sur-Vendinelle;31460;0.031895891830525;0.75964972329316;958
Auriat;23400;0.028686422774114;0.80065041985547;113
Auribail;31190;0.024129177824283;0.75663901968082;162
Auribeau;84400;0.095290125878069;0.76510387720564;59
Auribeau-sur-Siagne;6810;0.12061195254287;0.76098296831388;2612
Aurice;40500;-0.010549538414239;0.76473056859983;627
Auriébat;65700;0.0015368670927467;0.75913093951281;290
Aurières;63210;0.050735744607856;0.79734397220408;208
Aurignac;31420;0.015407382470625;0.75429250844435;980
Aurillac;15000;0.042663595152906;0.78411824817756;30551
Aurimont;32450;0.014340794776427;0.76051751433436;134
Aurin;31570;0.029384555889716;0.75985818222748;245
Auriol;13390;0.098310525061248;0.75694927794782;9461
Auriolles;33790;0.00089205526053937;0.78087971113396;117
Aurions-Idernes;64350;-0.002399827773507;0.75986790276546;117
Auris;38142;0.10625177182624;0.78620783094786;215
Aurons;13121;0.090020204456372;0.76210289413128;515
Auros;33124;-0.0025549699107205;0.77658909230174;662
Aurouër;3460;0.057605568376796;0.81484573425587;319
Auroux;48600;0.06506685109552;0.7810833097993;380
Aussac;81600;0.035633811109803;0.76558384541309;214
Aussac-Vadalle;16560;0.0034955105026144;0.79968562317157;385
Ausseing;31260;0.017763577834668;0.753158068399;61
Aussevielle;64230;-0.0083824321689303;0.75669720975064;479
Aussillon;81200;0.041107356163972;0.75899032460725;6865
Aussois;73500;0.11766428262458;0.7893978984596;628
Ausson;31210;0.01038956149532;0.75193634324893;541
Aussonce;8310;0.075437008965585;0.86133454003455;157
Aussonne;31840;0.023014103953488;0.76241801266726;4220
Aussos;32140;0.01139312589844;0.75704142332152;77
Aussurucq;64130;-0.016280047304682;0.75310473859818;254
Autainville;41240;0.024710947445005;0.83565880422803;320
Autechaux;25110;0.1114489806278;0.82689334239516;265
Autechaux-Roide;25150;0.11894904146871;0.82714547717137;546
Auterive;82500;0.016915155048612;0.76553530930223;50
Auterive;32550;0.010704680031304;0.76067750373684;508
Auterive;31190;0.025840577155634;0.75667297498471;6531
Auterrive;64270;-0.017443588626721;0.75863159680842;137
Autet;70180;0.099401355843744;0.82980224667482;263
Auteuil;78770;0.03174075021346;0.8524479043721;864
Auteuil;60390;0.036438601746469;0.86115517613515;535
Autevielle-Saint-Martin-Bideren;64390;-0.01693939813691;0.75733716736058;121
Authe;8240;0.085147826406396;0.86324469232642;94
Autheuil;28220;0.022563232861533;0.83785984028994;217
Autheuil;61190;0.011698558226256;0.84774036767123;127
Autheuil-Authouillet;27490;0.022320822784498;0.85684518280598;765
Autheuil-en-Valois;60890;0.053416778005563;0.85826564635241;212
Autheux;80600;0.038906303457292;0.8751517521392;108
Authevernes;27420;0.028633103376259;0.85900254302602;361
Authezat;63730|63114;0.055569344535646;0.79644222585899;499
Authie;14280;-0.0075049159084113;0.8588280393956;983
Authie;80560;0.043405360417899;0.87474448822949;238
Authieule;80600;0.041393396309805;0.87516140609814;356
Authieux-Ratiéville;76690;0.020163404307803;0.86579966249721;342
Authiou;58700;0.059636923626579;0.82504624044212;34
Authoison;70190;0.10731350757383;0.8288471705289;214
Authon;41310;0.015640087614141;0.83157185064015;698
Authon;4200;0.10693051171956;0.77210938903212;33
Authon-du-Perche;28330;0.015620696472454;0.84116628794134;1287
Authon-Ébéon;17770;-0.0071219205742929;0.80001046224553;407
Authon-la-Plaine;91410;0.034174523668116;0.84563627067298;305
Authou;27290;0.012091256933448;0.85925467780223;321
Authuille;80300;0.046546954236622;0.87340638293977;167
Authume;39100;0.096075525373048;0.82250578449925;776
Authumes;71270;0.092555783485479;0.81838487560749;199
Autichamp;26400;0.086641060829603;0.77982762934534;120
Autignac;34480;0.055297843584892;0.75922308488652;729
Autigny;76740;0.015019535710045;0.86906729457571;224
Autigny-la-Tour;88300;0.10054067280284;0.84474417828683;161
Autigny-le-Grand;52300;0.089690530080556;0.8460338140447;210
Autigny-le-Petit;52300;0.089656583099036;0.84617442895025;56
Autingues;62610;0.034664177043445;0.88735934968097;255
Autoire;46400;0.031818329344371;0.78285291376462;312
Autoreille;70700;0.10138908934711;0.82675758775859;268
Autouillet;78770;0.031493488189813;0.85258851927766;348
Autrac;43450;0.054657898458513;0.79115292161797;69
Autrans;38880;0.096739726071292;0.78844275573466;1541
Autrèche;37110;0.017424197485034;0.82946289337294;400
Autrechêne;90140;0.12146037740952;0.83068461852301;210
Autrêches;60350;0.054570634159732;0.86295380855636;671
Autrecourt-et-Pourron;8210;0.087794916983773;0.86594027740276;350
Autrécourt-sur-Aire;55120;0.089690530080556;0.85586101162515;110
Autremencourt;2250;0.066080104827701;0.86752073035168;162
Autrepierre;54450;0.11869209635779;0.848433655082;108
Autreppes;2580;0.067282442997277;0.87098716740556;142
Autretot;76190;0.012779685115531;0.86656565420574;621
Autreville;2300;0.056553519877675;0.86542635389141;760
Autreville;88300;0.10208722038212;0.84620831767512;124
Autréville-Saint-Lambert;55700;0.089491758394695;0.86504818501661;43
Autreville-sur-la-Renne;52120;0.08690769318899;0.83979429392675;473
Autreville-sur-Moselle;54380;0.10676566204809;0.85211820502916;249
Autrey;54160;0.10696444205633;0.84704221999145;152
Autrey;88700;0.11676252795711;0.84294554586561;297
Autrey-le-Vay;70110;0.11170107379211;0.8297149615701;69
Autrey-lès-Cerre;70110;0.11078477160718;0.83094640725815;155
Autrey-lès-Gray;70100;0.095837963081435;0.82880835495601;497
Autricourt;21570;0.080648748639844;0.83773380619135;133
Autruche;8240;0.085540526153884;0.86317684829764;44
Autruy-sur-Juine;45480;0.036685842964169;0.84255772303188;810
Autry;8250;0.084454547318;0.8599237304471;127
Autry-Issards;3210;0.054745166918483;0.81243137899062;307
Autry-le-Châtel;45500;0.045417341170751;0.83073794832384;1015
Autun;71400;0.075087935125703;0.81946598585202;16419
Auty;82220;0.025612706273675;0.77125611221886;122
Auvare;6260;0.12056831831288;0.76778488147502;44
Auve;51800;0.081938359430578;0.85580282155533;219
Auvernaux;91830;0.043526575859389;0.84700826468756;257
Auvers;50500;-0.023009252006877;0.86044244764841;589
Auvers;43300;0.059370291267192;0.78532545909969;67
Auvers-le-Hamon;72300;-0.0060989483847284;0.8360999568626;1374
Auvers-Saint-Georges;91580;0.038712379556853;0.84634407231169;1059
Auvers-sous-Montfaucon;72540;-0.0012120264583384;0.83786470055894;189
Auvers-sur-Oise;95760|95430;0.037868794153246;0.85644757285523;6820
Auverse;49490;0.00090659380542971;0.82935623377127;390
Auvet-et-la-Chapelotte;70100;0.096274297058908;0.82919624436879;266
Auvillar;82340;0.015683720803829;0.76916173575859;876
Auvillars;14340;0.0012605117246745;0.85859048542638;178
Auvillars-sur-Saône;21250;0.088963304010639;0.82144404875166;212
Auvillers-les-Forges;8260;0.076057575433845;0.87030846080175;833
Auvilliers;76270;0.027527716753929;0.8684806667666;107
Auvilliers-en-Gâtinais;45270;0.043647770494935;0.83714717838224;306
Aux-Aussat;32170;0.0046348266814842;0.75814190806298;201
Auxais;50500;-0.022650499240908;0.8589880287981;137
Auxange;39700;0.098625643597231;0.82337364211949;132
Auxant;21360;0.08069723481644;0.8224670355054;39
Auxelles-Bas;90200;0.11836242198197;0.83312806882315;461
Auxelles-Haut;90200;0.11811030385052;0.83330257245357;305
Auxerre;89000;0.062332496219362;0.83423827410257;37790
Auxey-Duresses;21190;0.082874044434821;0.82004781997117;367
Auxi-le-Château;62390;0.036884618811219;0.87670797032217;3065
Auxon;10130;0.068397516868071;0.83957125418546;927
Auxon;70000;0.10762379080796;0.83225055724396;399
Auxon-Dessous;25870;0.1038422352181;0.82553586260852;1096
Auxon-Dessus;25870;0.10423493496559;0.82556009737445;740
Auxonne;21130;0.094044149317319;0.82369362092446;7154
Auxy;45340;0.043196897322385;0.83982332238264;854
Auxy;71400;0.076876905265585;0.81941751632017;1048
Auzainvilliers;88140;0.10193693487285;0.84188381011802;210
Auzances;23700;0.043647770494935;0.80334114466284;1371
Auzas;31360;0.015412234417236;0.75344895216907;132
Auzat;9220;0.025850264404098;0.74641913899765;666
Auzat-la-Combelle;63570;0.057857665702298;0.79330062787907;2044
Auzay;85200;-0.015092246249588;0.81055997569262;522
Auzebosc;76190;0.012736051925843;0.86560571779083;963
Auzelles;63590;0.061265908525165;0.79587497254678;331
Auzers;15240;0.042949639459928;0.79003785606956;236
Auzet;4140;0.1102563255455;0.77310328075093;87
Auzeville-Tolosane;31320;0.025821169369189;0.75975152262583;2202
Auzielle;31650;0.02733379285349;0.75995026102218;1558
Auzits;12390;0.040520732516045;0.77671998666931;812
Auzon;43390;0.058783667619265;0.79221951763456;817
Auzouer-en-Touraine;37110;0.016061881356242;0.82976829137093;1309
Auzouville-Auberbosc;76640;0.009914447315066;0.86612936184017;258
Auzouville-l'Esneval;76760;0.015465554855389;0.86643962010717;354
Auzouville-sur-Ry;76116;0.022907446432426;0.86292471352144;577
Auzouville-sur-Saâne;76730;0.016343071636057;0.86819950353451;137
Availles-en-Châtellerault;86530;0.010122909370284;0.81604808490901;1226
Availles-Limouzine;86460;0.011461001136129;0.80496041318463;1309
Availles-sur-Seiche;35130;-0.020876074537886;0.83707926777445;512
Availles-Thouarsais;79600;-0.002448312909806;0.81785157759921;223
Avajan;65240;0.0070928260595325;0.74775238401837;68
Avallon;89200;0.068247227197617;0.82883744999092;8217
Avançon;8300;0.074084372803177;0.86352592213753;300
Avançon;5230;0.10795831713039;0.77711753004103;330
Avanne-Aveney;25720;0.1041234317397;0.82382451529205;1903
Avant-lès-Marcilly;10400;0.062332496219362;0.84513692796859;432
Avant-lès-Ramerupt;10240;0.074801894979872;0.84558294087214;166
Avanton;86170;0.0053184023968073;0.81443367665621;1414
Avapessa;20225;0.1552227935437;0.74281215361724;65
Avaray;41500;0.02730954976519;0.83291960988883;577
Avaux;8190;0.07126760557485;0.86319622279458;454
Aveize;69610;0.078137412699035;0.79732945797613;940
Aveizieux;42330;0.076304816651545;0.79527869077873;1271
Avelanges;21120;0.08770279657719;0.83053914334845;46
Avelesges;80270;0.033820606204001;0.87120048660887;58
Avelin;59710;0.053775530771533;0.882055464633;2304
Aveluy;80300;0.046406368459391;0.8730524488309;525
Avenas;69430;0.080338482050471;0.80625970290145;106
Avenay;14210;-0.0081109291375805;0.85696635663559;406
Avenay-Val-d'Or;51160;0.070642203804736;0.85643305862729;1026
Avène;34260;0.0542797379061;0.7636784868112;275
Avensac;32120;0.015727353993517;0.76503117290787;48
Avensan;33480;-0.013220868959021;0.78601388624148;1753
Aventignan;65660;0.0091096410739413;0.75169878927969;180
Averan;65380;0.00011150908568989;0.75290113993283;65
Averdoingt;62127;0.042600573942423;0.87868603322183;251
Averdon;41330;0.022621404206;0.83226027778195;643
